{
  "type" : "FeatureCollection",
  "dataUpdatedTime" : "2022-12-18T22:59:53Z",
  "features" : [ {
    "type" : "Feature",
    "id" : 1001,
    "geometry" : {
      "type" : "Point",
      "coordinates" : [ 24.596412, 60.228047, 0.000000 ]
    },
    "properties" : {
      "id" : 1001,
      "name" : "vt1_Espoo_Nupuri",
      "collectionStatus" : "GATHERING",
      "state" : null,
      "dataUpdatedTime" : "2022-09-27T07:20:32Z"
    }
  }, {
    "type" : "Feature",
    "id" : 1002,
    "geometry" : {
      "type" : "Point",
      "coordinates" : [ 24.898476, 60.166907, 0.000000 ]
    },
    "properties" : {
      "id" : 1002,
      "name" : "kt51_Hki_Lapinlahti",
      "collectionStatus" : "GATHERING",
      "state" : null,
      "dataUpdatedTime" : "2022-10-20T03:03:04Z"
    }
  }, {
    "type" : "Feature",
    "id" : 1003,
    "geometry" : {
      "type" : "Point",
      "coordinates" : [ 24.240620, 60.311628, 0.000000 ]
    },
    "properties" : {
      "id" : 1003,
      "name" : "st110_Vihti_Myllylampi",
      "collectionStatus" : "GATHERING",
      "state" : "REPAIR_INTERRUPTED",
      "dataUpdatedTime" : "2022-11-01T13:31:34Z"
    }
  }, {
    "type" : "Feature",
    "id" : 1004,
    "geometry" : {
      "type" : "Point",
      "coordinates" : [ 25.065093, 60.251833, 0.000000 ]
    },
    "properties" : {
      "id" : 1004,
      "name" : "vt4_Helsinki_Jakomäki",
      "collectionStatus" : "GATHERING",
      "state" : null,
      "dataUpdatedTime" : "2022-09-27T07:20:32Z"
    }
  }, {
    "type" : "Feature",
    "id" : 1005,
    "geometry" : {
      "type" : "Point",
      "coordinates" : [ 25.124371, 60.426274, 0.000000 ]
    },
    "properties" : {
      "id" : 1005,
      "name" : "vt4_Kerava_Kytömaa_JK",
      "collectionStatus" : "GATHERING",
      "state" : null,
      "dataUpdatedTime" : "2022-11-30T13:14:26Z"
    }
  }, {
    "type" : "Feature",
    "id" : 1006,
    "geometry" : {
      "type" : "Point",
      "coordinates" : [ 25.913960, 60.490497, 0.000000 ]
    },
    "properties" : {
      "id" : 1006,
      "name" : "vt7_Loviisa_Koskenkylä",
      "collectionStatus" : "GATHERING",
      "state" : null,
      "dataUpdatedTime" : "2022-09-27T07:20:32Z"
    }
  }, {
    "type" : "Feature",
    "id" : 1009,
    "geometry" : {
      "type" : "Point",
      "coordinates" : [ 25.187120, 60.555731, 0.000000 ]
    },
    "properties" : {
      "id" : 1009,
      "name" : "vt4_Mäntsälä_Ohkola",
      "collectionStatus" : "GATHERING",
      "state" : null,
      "dataUpdatedTime" : "2022-10-07T03:04:22Z"
    }
  }, {
    "type" : "Feature",
    "id" : 1010,
    "geometry" : {
      "type" : "Point",
      "coordinates" : [ 25.448236, 60.735882, 0.000000 ]
    },
    "properties" : {
      "id" : 1010,
      "name" : "vt4_Mäntsälä_Levanto",
      "collectionStatus" : "GATHERING",
      "state" : "OK_FAULT_DOUBT_CANCELLED",
      "dataUpdatedTime" : "2022-11-30T12:27:37Z"
    }
  }, {
    "type" : "Feature",
    "id" : 1011,
    "geometry" : {
      "type" : "Point",
      "coordinates" : [ 25.325135, 60.281350, 0.000000 ]
    },
    "properties" : {
      "id" : 1011,
      "name" : "vt7_Sipoonlahti",
      "collectionStatus" : "GATHERING",
      "state" : null,
      "dataUpdatedTime" : "2022-09-27T07:20:32Z"
    }
  }, {
    "type" : "Feature",
    "id" : 1012,
    "geometry" : {
      "type" : "Point",
      "coordinates" : [ 24.667305, 60.153507, 0.000000 ]
    },
    "properties" : {
      "id" : 1012,
      "name" : "kt51_Espoo_Kivenlahti",
      "collectionStatus" : "GATHERING",
      "state" : null,
      "dataUpdatedTime" : "2022-11-02T03:03:41Z"
    }
  }, {
    "type" : "Feature",
    "id" : 1013,
    "geometry" : {
      "type" : "Point",
      "coordinates" : [ 24.075802, 60.060423, 0.000000 ]
    },
    "properties" : {
      "id" : 1013,
      "name" : "kt51_Inkoo_Innanbäck",
      "collectionStatus" : "GATHERING",
      "state" : null,
      "dataUpdatedTime" : "2022-09-27T07:20:32Z"
    }
  }, {
    "type" : "Feature",
    "id" : 1014,
    "geometry" : {
      "type" : "Point",
      "coordinates" : [ 23.021749, 59.856517, 0.000000 ]
    },
    "properties" : {
      "id" : 1014,
      "name" : "vt25_Hanko",
      "collectionStatus" : "GATHERING",
      "state" : null,
      "dataUpdatedTime" : "2022-09-27T07:20:32Z"
    }
  }, {
    "type" : "Feature",
    "id" : 1015,
    "geometry" : {
      "type" : "Point",
      "coordinates" : [ 23.725767, 60.080763, 0.000000 ]
    },
    "properties" : {
      "id" : 1015,
      "name" : "vt25_Raasepori_Karjaa",
      "collectionStatus" : "GATHERING",
      "state" : null,
      "dataUpdatedTime" : "2022-10-05T03:03:29Z"
    }
  }, {
    "type" : "Feature",
    "id" : 1016,
    "geometry" : {
      "type" : "Point",
      "coordinates" : [ 24.019218, 60.203749, 0.000000 ]
    },
    "properties" : {
      "id" : 1016,
      "name" : "vt25_Lohja_Virkkala",
      "collectionStatus" : "GATHERING",
      "state" : "OK",
      "dataUpdatedTime" : "2022-10-06T08:53:51Z"
    }
  }, {
    "type" : "Feature",
    "id" : 1018,
    "geometry" : {
      "type" : "Point",
      "coordinates" : [ 24.832601, 60.580412, 0.000000 ]
    },
    "properties" : {
      "id" : 1018,
      "name" : "vt25_Hyvinkää_Kirvunkylä",
      "collectionStatus" : "GATHERING",
      "state" : "OK",
      "dataUpdatedTime" : "2022-09-27T07:20:32Z"
    }
  }, {
    "type" : "Feature",
    "id" : 1019,
    "geometry" : {
      "type" : "Point",
      "coordinates" : [ 25.593759, 60.378991, 0.000000 ]
    },
    "properties" : {
      "id" : 1019,
      "name" : "vt7_Porvoo_Ernestas",
      "collectionStatus" : "GATHERING",
      "state" : null,
      "dataUpdatedTime" : "2022-09-27T07:20:32Z"
    }
  }, {
    "type" : "Feature",
    "id" : 1020,
    "geometry" : {
      "type" : "Point",
      "coordinates" : [ 24.852032, 60.496413, 0.000000 ]
    },
    "properties" : {
      "id" : 1020,
      "name" : "vt3_Nurmijärvi_Karhunkorpi",
      "collectionStatus" : "GATHERING",
      "state" : "OK",
      "dataUpdatedTime" : "2022-11-25T10:24:53Z"
    }
  }, {
    "type" : "Feature",
    "id" : 1021,
    "geometry" : {
      "type" : "Point",
      "coordinates" : [ 25.538166, 60.505138, 0.000000 ]
    },
    "properties" : {
      "id" : 1021,
      "name" : "kt55_Askola_Monninkylä",
      "collectionStatus" : "GATHERING",
      "state" : null,
      "dataUpdatedTime" : "2022-10-11T03:03:15Z"
    }
  }, {
    "type" : "Feature",
    "id" : 1022,
    "geometry" : {
      "type" : "Point",
      "coordinates" : [ 26.185220, 60.459557, 0.000000 ]
    },
    "properties" : {
      "id" : 1022,
      "name" : "vt7_Loviisa",
      "collectionStatus" : "GATHERING",
      "state" : null,
      "dataUpdatedTime" : "2022-12-15T03:04:13Z"
    }
  }, {
    "type" : "Feature",
    "id" : 1030,
    "geometry" : {
      "type" : "Point",
      "coordinates" : [ 24.032700, 60.389762, 0.000000 ]
    },
    "properties" : {
      "id" : 1030,
      "name" : "st110_Lohja_Hyrsylän_mutka_R",
      "collectionStatus" : "GATHERING",
      "state" : null,
      "dataUpdatedTime" : "2022-09-27T07:20:32Z"
    }
  }, {
    "type" : "Feature",
    "id" : 1032,
    "geometry" : {
      "type" : "Point",
      "coordinates" : [ 23.905038, 60.385883, 0.000000 ]
    },
    "properties" : {
      "id" : 1032,
      "name" : "st110_Lohja_Oinola_R",
      "collectionStatus" : "GATHERING",
      "state" : null,
      "dataUpdatedTime" : "2022-09-27T07:20:32Z"
    }
  }, {
    "type" : "Feature",
    "id" : 1034,
    "geometry" : {
      "type" : "Point",
      "coordinates" : [ 24.905725, 60.228845, 0.000000 ]
    },
    "properties" : {
      "id" : 1034,
      "name" : "vt3_Helsinki_Pirkkola",
      "collectionStatus" : "GATHERING",
      "state" : "OK_FAULT_DOUBT_CANCELLED",
      "dataUpdatedTime" : "2022-12-12T11:53:50Z"
    }
  }, {
    "type" : "Feature",
    "id" : 1035,
    "geometry" : {
      "type" : "Point",
      "coordinates" : [ 24.770216, 60.270938, 0.000000 ]
    },
    "properties" : {
      "id" : 1035,
      "name" : "kt50_Vantaa_Askisto",
      "collectionStatus" : "REMOVED_TEMPORARILY",
      "state" : null,
      "dataUpdatedTime" : "2022-09-27T07:20:32Z"
    }
  }, {
    "type" : "Feature",
    "id" : 1036,
    "geometry" : {
      "type" : "Point",
      "coordinates" : [ 24.997117, 60.320603, 0.000000 ]
    },
    "properties" : {
      "id" : 1036,
      "name" : "kt45_Vantaa_Ilola",
      "collectionStatus" : "GATHERING",
      "state" : "OK_FAULT_DOUBT_CANCELLED",
      "dataUpdatedTime" : "2022-12-05T06:40:58Z"
    }
  }, {
    "type" : "Feature",
    "id" : 1037,
    "geometry" : {
      "type" : "Point",
      "coordinates" : [ 26.172861, 60.615796, 0.000000 ]
    },
    "properties" : {
      "id" : 1037,
      "name" : "vt6_Lapinjärvi",
      "collectionStatus" : "GATHERING",
      "state" : null,
      "dataUpdatedTime" : "2022-09-27T07:20:32Z"
    }
  }, {
    "type" : "Feature",
    "id" : 1041,
    "geometry" : {
      "type" : "Point",
      "coordinates" : [ 24.825599, 60.326306, 0.000000 ]
    },
    "properties" : {
      "id" : 1041,
      "name" : "vt3_Vantaa_Keimola",
      "collectionStatus" : "GATHERING",
      "state" : null,
      "dataUpdatedTime" : "2022-09-27T07:20:32Z"
    }
  }, {
    "type" : "Feature",
    "id" : 1042,
    "geometry" : {
      "type" : "Point",
      "coordinates" : [ 24.946006, 60.464428, 0.000000 ]
    },
    "properties" : {
      "id" : 1042,
      "name" : "kt45_Tuusula_Terrisuo",
      "collectionStatus" : "GATHERING",
      "state" : null,
      "dataUpdatedTime" : "2022-09-27T07:20:32Z"
    }
  }, {
    "type" : "Feature",
    "id" : 1043,
    "geometry" : {
      "type" : "Point",
      "coordinates" : [ 24.319161, 60.293283, 0.000000 ]
    },
    "properties" : {
      "id" : 1043,
      "name" : "vt1_Vihti_Palojärvi",
      "collectionStatus" : "GATHERING",
      "state" : "OK",
      "dataUpdatedTime" : "2022-09-27T07:20:32Z"
    }
  }, {
    "type" : "Feature",
    "id" : 1045,
    "geometry" : {
      "type" : "Point",
      "coordinates" : [ 24.852457, 60.164148, 0.000000 ]
    },
    "properties" : {
      "id" : 1045,
      "name" : "kt51_Hki_Vaskisalmi",
      "collectionStatus" : "GATHERING",
      "state" : null,
      "dataUpdatedTime" : "2022-10-01T03:03:24Z"
    }
  }, {
    "type" : "Feature",
    "id" : 1047,
    "geometry" : {
      "type" : "Point",
      "coordinates" : [ 24.822767, 60.169385, 0.000000 ]
    },
    "properties" : {
      "id" : 1047,
      "name" : "kt51_Espoo_Karhusaari",
      "collectionStatus" : "GATHERING",
      "state" : "OK",
      "dataUpdatedTime" : "2022-09-27T07:20:32Z"
    }
  }, {
    "type" : "Feature",
    "id" : 1049,
    "geometry" : {
      "type" : "Point",
      "coordinates" : [ 25.079301, 60.282298, 0.000000 ]
    },
    "properties" : {
      "id" : 1049,
      "name" : "Vantaa_Hakkila_R",
      "collectionStatus" : "GATHERING",
      "state" : "REPAIR_MAINTENANCE_DONE",
      "dataUpdatedTime" : "2022-09-27T07:20:32Z"
    }
  }, {
    "type" : "Feature",
    "id" : 1051,
    "geometry" : {
      "type" : "Point",
      "coordinates" : [ 24.401012, 60.113674, 0.000000 ]
    },
    "properties" : {
      "id" : 1051,
      "name" : "kt51_Kirkkonummi_Vuohimäki",
      "collectionStatus" : "GATHERING",
      "state" : null,
      "dataUpdatedTime" : "2022-11-02T03:03:45Z"
    }
  }, {
    "type" : "Feature",
    "id" : 1052,
    "geometry" : {
      "type" : "Point",
      "coordinates" : [ 24.235628, 60.536835, 0.000000 ]
    },
    "properties" : {
      "id" : 1052,
      "name" : "vt2_Karkkila_Korpi",
      "collectionStatus" : "GATHERING",
      "state" : "OK",
      "dataUpdatedTime" : "2022-10-26T05:06:13Z"
    }
  }, {
    "type" : "Feature",
    "id" : 1053,
    "geometry" : {
      "type" : "Point",
      "coordinates" : [ 23.402098, 59.980964, 0.000000 ]
    },
    "properties" : {
      "id" : 1053,
      "name" : "vt25_Tammisaari_Trollböle",
      "collectionStatus" : "GATHERING",
      "state" : null,
      "dataUpdatedTime" : "2022-09-27T07:20:32Z"
    }
  }, {
    "type" : "Feature",
    "id" : 1054,
    "geometry" : {
      "type" : "Point",
      "coordinates" : [ 25.092318, 60.617170, 0.000000 ]
    },
    "properties" : {
      "id" : 1054,
      "name" : "vt25_Mäntsälä_Keravanjärvi",
      "collectionStatus" : "GATHERING",
      "state" : null,
      "dataUpdatedTime" : "2022-09-27T07:20:32Z"
    }
  }, {
    "type" : "Feature",
    "id" : 1055,
    "geometry" : {
      "type" : "Point",
      "coordinates" : [ 24.810269, 60.200060, 0.000000 ]
    },
    "properties" : {
      "id" : 1055,
      "name" : "st101_Espoo_Turvesuo_1",
      "collectionStatus" : "GATHERING",
      "state" : null,
      "dataUpdatedTime" : "2022-09-27T07:20:32Z"
    }
  }, {
    "type" : "Feature",
    "id" : 1059,
    "geometry" : {
      "type" : "Point",
      "coordinates" : [ 25.862316, 60.622145, 0.000000 ]
    },
    "properties" : {
      "id" : 1059,
      "name" : "st167_Myrskylä_Hallila_R",
      "collectionStatus" : "GATHERING",
      "state" : null,
      "dataUpdatedTime" : "2022-12-15T03:04:14Z"
    }
  }, {
    "type" : "Feature",
    "id" : 1065,
    "geometry" : {
      "type" : "Point",
      "coordinates" : [ 24.499857, 60.257677, 0.000000 ]
    },
    "properties" : {
      "id" : 1065,
      "name" : "vt1_Espoo_Kolmiranta",
      "collectionStatus" : "GATHERING",
      "state" : null,
      "dataUpdatedTime" : "2022-09-27T07:20:32Z"
    }
  }, {
    "type" : "Feature",
    "id" : 1066,
    "geometry" : {
      "type" : "Point",
      "coordinates" : [ 24.158688, 60.288114, 0.000000 ]
    },
    "properties" : {
      "id" : 1066,
      "name" : "vt1_Lohja_Lehmijärvi",
      "collectionStatus" : "GATHERING",
      "state" : null,
      "dataUpdatedTime" : "2022-09-27T07:20:32Z"
    }
  }, {
    "type" : "Feature",
    "id" : 1070,
    "geometry" : {
      "type" : "Point",
      "coordinates" : [ 26.302983, 60.699375, 2.000000 ]
    },
    "properties" : {
      "id" : 1070,
      "name" : "vt6_Lapinjärvi_Kimonkylä",
      "collectionStatus" : "GATHERING",
      "state" : null,
      "dataUpdatedTime" : "2022-11-18T11:21:41Z"
    }
  }, {
    "type" : "Feature",
    "id" : 1071,
    "geometry" : {
      "type" : "Point",
      "coordinates" : [ 25.166245, 60.226774, 0.000000 ]
    },
    "properties" : {
      "id" : 1071,
      "name" : "st103_Helsinki_Satamatie_etelä_R",
      "collectionStatus" : "GATHERING",
      "state" : null,
      "dataUpdatedTime" : "2022-11-05T03:04:35Z"
    }
  }, {
    "type" : "Feature",
    "id" : 1072,
    "geometry" : {
      "type" : "Point",
      "coordinates" : [ 25.161791, 60.232479, 0.000000 ]
    },
    "properties" : {
      "id" : 1072,
      "name" : "st103_Hki_Vuosaaren_tunneli_R",
      "collectionStatus" : "GATHERING",
      "state" : null,
      "dataUpdatedTime" : "2022-09-27T07:20:32Z"
    }
  }, {
    "type" : "Feature",
    "id" : 1073,
    "geometry" : {
      "type" : "Point",
      "coordinates" : [ 25.156938, 60.239776, 0.000000 ]
    },
    "properties" : {
      "id" : 1073,
      "name" : "st103_Helsinki_Satamatie_pohj_R",
      "collectionStatus" : "GATHERING",
      "state" : null,
      "dataUpdatedTime" : "2022-11-04T03:04:18Z"
    }
  }, {
    "type" : "Feature",
    "id" : 1084,
    "geometry" : {
      "type" : "Point",
      "coordinates" : [ 25.015838, 60.284859, 16.000000 ]
    },
    "properties" : {
      "id" : 1084,
      "name" : "kt50_Vantaa_Suutarila_Opt2",
      "collectionStatus" : "GATHERING",
      "state" : null,
      "dataUpdatedTime" : "2022-09-27T07:20:32Z"
    }
  }, {
    "type" : "Feature",
    "id" : 1085,
    "geometry" : {
      "type" : "Point",
      "coordinates" : [ 25.015838, 60.284859, 16.000000 ]
    },
    "properties" : {
      "id" : 1085,
      "name" : "kt50_Vantaa_Suutarila_Opt1",
      "collectionStatus" : "REMOVED_TEMPORARILY",
      "state" : null,
      "dataUpdatedTime" : "2022-12-09T03:04:05Z"
    }
  }, {
    "type" : "Feature",
    "id" : 1087,
    "geometry" : {
      "type" : "Point",
      "coordinates" : [ 24.087345, 60.498570, 0.000000 ]
    },
    "properties" : {
      "id" : 1087,
      "name" : "yt1282_Lohja_Ikkala_R",
      "collectionStatus" : "GATHERING",
      "state" : null,
      "dataUpdatedTime" : "2022-09-27T07:20:32Z"
    }
  }, {
    "type" : "Feature",
    "id" : 1088,
    "geometry" : {
      "type" : "Point",
      "coordinates" : [ 24.087345, 60.498570, 0.000000 ]
    },
    "properties" : {
      "id" : 1088,
      "name" : "yt1282_Lohja_Ikkala_Opt",
      "collectionStatus" : "GATHERING",
      "state" : null,
      "dataUpdatedTime" : "2022-09-27T07:20:32Z"
    }
  }, {
    "type" : "Feature",
    "id" : 1092,
    "geometry" : {
      "type" : "Point",
      "coordinates" : [ 24.818427, 60.222570, 0.000000 ]
    },
    "properties" : {
      "id" : 1092,
      "name" : "st101_Espoo_Mestarintunneli_R",
      "collectionStatus" : "GATHERING",
      "state" : null,
      "dataUpdatedTime" : "2022-09-27T07:20:32Z"
    }
  }, {
    "type" : "Feature",
    "id" : 1094,
    "geometry" : {
      "type" : "Point",
      "coordinates" : [ 24.818427, 60.222570, 0.000000 ]
    },
    "properties" : {
      "id" : 1094,
      "name" : "st101_Espoo_Mestarintunneli_O2",
      "collectionStatus" : "GATHERING",
      "state" : "OK",
      "dataUpdatedTime" : "2022-10-24T05:03:00Z"
    }
  }, {
    "type" : "Feature",
    "id" : 1095,
    "geometry" : {
      "type" : "Point",
      "coordinates" : [ 24.818427, 60.222570, 0.000000 ]
    },
    "properties" : {
      "id" : 1095,
      "name" : "st101_Espoo_Mestarintunneli_O3",
      "collectionStatus" : "GATHERING",
      "state" : null,
      "dataUpdatedTime" : "2022-09-27T07:20:32Z"
    }
  }, {
    "type" : "Feature",
    "id" : 1096,
    "geometry" : {
      "type" : "Point",
      "coordinates" : [ 24.825079, 60.226550, 0.000000 ]
    },
    "properties" : {
      "id" : 1096,
      "name" : "st101_Espoo_Vallikallio_R",
      "collectionStatus" : "GATHERING",
      "state" : null,
      "dataUpdatedTime" : "2022-09-27T07:20:32Z"
    }
  }, {
    "type" : "Feature",
    "id" : 1097,
    "geometry" : {
      "type" : "Point",
      "coordinates" : [ 24.825079, 60.226550, 0.000000 ]
    },
    "properties" : {
      "id" : 1097,
      "name" : "st101_Espoo_Vallikallio_O",
      "collectionStatus" : "GATHERING",
      "state" : null,
      "dataUpdatedTime" : "2022-09-27T07:20:32Z"
    }
  }, {
    "type" : "Feature",
    "id" : 1098,
    "geometry" : {
      "type" : "Point",
      "coordinates" : [ 24.825079, 60.226550, 0.000000 ]
    },
    "properties" : {
      "id" : 1098,
      "name" : "st101_Espoo_Vallikallio_Opt1",
      "collectionStatus" : "GATHERING",
      "state" : null,
      "dataUpdatedTime" : "2022-09-27T07:20:32Z"
    }
  }, {
    "type" : "Feature",
    "id" : 1099,
    "geometry" : {
      "type" : "Point",
      "coordinates" : [ 24.825079, 60.226550, 0.000000 ]
    },
    "properties" : {
      "id" : 1099,
      "name" : "st101_Espoo_Vallikallio_Opt2",
      "collectionStatus" : "GATHERING",
      "state" : null,
      "dataUpdatedTime" : "2022-09-27T07:20:32Z"
    }
  }, {
    "type" : "Feature",
    "id" : 1108,
    "geometry" : {
      "type" : "Point",
      "coordinates" : [ 26.453553, 60.491598, 7.000000 ]
    },
    "properties" : {
      "id" : 1108,
      "name" : "vt7_Loviisa_Markkinamäki",
      "collectionStatus" : "GATHERING",
      "state" : null,
      "dataUpdatedTime" : "2022-09-27T07:20:32Z"
    }
  }, {
    "type" : "Feature",
    "id" : 1112,
    "geometry" : {
      "type" : "Point",
      "coordinates" : [ 25.166245, 60.226774, 0.000000 ]
    },
    "properties" : {
      "id" : 1112,
      "name" : "st103_Helsinki_Satamatie_etelä_O",
      "collectionStatus" : "GATHERING",
      "state" : null,
      "dataUpdatedTime" : "2022-11-25T03:03:39Z"
    }
  }, {
    "type" : "Feature",
    "id" : 1113,
    "geometry" : {
      "type" : "Point",
      "coordinates" : [ 25.161791, 60.232479, 0.000000 ]
    },
    "properties" : {
      "id" : 1113,
      "name" : "st103_Hki_Vuosaaren_tunneli_O",
      "collectionStatus" : "GATHERING",
      "state" : null,
      "dataUpdatedTime" : "2022-09-27T07:20:32Z"
    }
  }, {
    "type" : "Feature",
    "id" : 1114,
    "geometry" : {
      "type" : "Point",
      "coordinates" : [ 25.156938, 60.239776, 0.000000 ]
    },
    "properties" : {
      "id" : 1114,
      "name" : "st103_Helsinki_Satamatie_pohj_O",
      "collectionStatus" : "GATHERING",
      "state" : null,
      "dataUpdatedTime" : "2022-09-27T07:20:32Z"
    }
  }, {
    "type" : "Feature",
    "id" : 1115,
    "geometry" : {
      "type" : "Point",
      "coordinates" : [ 25.166158, 60.261944, 0.000000 ]
    },
    "properties" : {
      "id" : 1115,
      "name" : "vt7_Helsinki_Itäsalmi",
      "collectionStatus" : "GATHERING",
      "state" : null,
      "dataUpdatedTime" : "2022-09-27T07:20:32Z"
    }
  }, {
    "type" : "Feature",
    "id" : 1116,
    "geometry" : {
      "type" : "Point",
      "coordinates" : [ 25.409835, 60.314793, 0.000000 ]
    },
    "properties" : {
      "id" : 1116,
      "name" : "vt7_Sipoo_Box",
      "collectionStatus" : "GATHERING",
      "state" : null,
      "dataUpdatedTime" : "2022-09-27T07:20:32Z"
    }
  }, {
    "type" : "Feature",
    "id" : 1155,
    "geometry" : {
      "type" : "Point",
      "coordinates" : [ 24.596412, 60.228047, 0.000000 ]
    },
    "properties" : {
      "id" : 1155,
      "name" : "vt1_Espoo_Nupuri_OptX2",
      "collectionStatus" : "GATHERING",
      "state" : "OK",
      "dataUpdatedTime" : "2022-09-27T07:20:32Z"
    }
  }, {
    "type" : "Feature",
    "id" : 1158,
    "geometry" : {
      "type" : "Point",
      "coordinates" : [ 24.499857, 60.257677, 0.000000 ]
    },
    "properties" : {
      "id" : 1158,
      "name" : "vt1_Espoo_Kolmiranta_OptX2",
      "collectionStatus" : "GATHERING",
      "state" : null,
      "dataUpdatedTime" : "2022-09-27T07:20:32Z"
    }
  }, {
    "type" : "Feature",
    "id" : 1161,
    "geometry" : {
      "type" : "Point",
      "coordinates" : [ 24.319161, 60.293283, 0.000000 ]
    },
    "properties" : {
      "id" : 1161,
      "name" : "vt1_Vihti_Palojärvi_OptX2",
      "collectionStatus" : "GATHERING",
      "state" : null,
      "dataUpdatedTime" : "2022-09-27T07:20:32Z"
    }
  }, {
    "type" : "Feature",
    "id" : 1163,
    "geometry" : {
      "type" : "Point",
      "coordinates" : [ 24.158688, 60.288114, 0.000000 ]
    },
    "properties" : {
      "id" : 1163,
      "name" : "vt1_Lohja_Lehmijärvi_OptX2",
      "collectionStatus" : "GATHERING",
      "state" : null,
      "dataUpdatedTime" : "2022-09-27T07:20:32Z"
    }
  }, {
    "type" : "Feature",
    "id" : 1165,
    "geometry" : {
      "type" : "Point",
      "coordinates" : [ 23.892508, 60.638628, 0.000000 ]
    },
    "properties" : {
      "id" : 1165,
      "name" : "vt2_Lohja_Salkola",
      "collectionStatus" : "GATHERING",
      "state" : null,
      "dataUpdatedTime" : "2022-09-27T07:20:32Z"
    }
  }, {
    "type" : "Feature",
    "id" : 1166,
    "geometry" : {
      "type" : "Point",
      "coordinates" : [ 24.527783, 60.458818, 0.000000 ]
    },
    "properties" : {
      "id" : 1166,
      "name" : "vt25_Vihti_Haimoo",
      "collectionStatus" : "GATHERING",
      "state" : null,
      "dataUpdatedTime" : "2022-09-27T07:20:32Z"
    }
  }, {
    "type" : "Feature",
    "id" : 1167,
    "geometry" : {
      "type" : "Point",
      "coordinates" : [ 24.286795, 60.333063, 0.000000 ]
    },
    "properties" : {
      "id" : 1167,
      "name" : "vt25_Vihti_Nummela",
      "collectionStatus" : "GATHERING",
      "state" : null,
      "dataUpdatedTime" : "2022-09-27T07:20:32Z"
    }
  }, {
    "type" : "Feature",
    "id" : 1169,
    "geometry" : {
      "type" : "Point",
      "coordinates" : [ 24.537858, 60.354812, 0.000000 ]
    },
    "properties" : {
      "id" : 1169,
      "name" : "st120_Vihti_Ollila",
      "collectionStatus" : "GATHERING",
      "state" : null,
      "dataUpdatedTime" : "2022-09-27T07:20:32Z"
    }
  }, {
    "type" : "Feature",
    "id" : 1171,
    "geometry" : {
      "type" : "Point",
      "coordinates" : [ 24.848197, 60.205298, 5.000000 ]
    },
    "properties" : {
      "id" : 1171,
      "name" : "vt1_Helsinki_Tarvo",
      "collectionStatus" : "GATHERING",
      "state" : null,
      "dataUpdatedTime" : "2022-09-27T07:20:32Z"
    }
  }, {
    "type" : "Feature",
    "id" : 1174,
    "geometry" : {
      "type" : "Point",
      "coordinates" : [ 24.848197, 60.205298, 5.000000 ]
    },
    "properties" : {
      "id" : 1174,
      "name" : "vt1_Helsinki_Tarvo_OptX2",
      "collectionStatus" : "GATHERING",
      "state" : "OK",
      "dataUpdatedTime" : "2022-09-27T07:20:32Z"
    }
  }, {
    "type" : "Feature",
    "id" : 1177,
    "geometry" : {
      "type" : "Point",
      "coordinates" : [ 24.734924, 60.201777, 5.000000 ]
    },
    "properties" : {
      "id" : 1177,
      "name" : "vt1_Espoo_Sepänkylä",
      "collectionStatus" : "GATHERING",
      "state" : "OK",
      "dataUpdatedTime" : "2022-09-27T07:20:32Z"
    }
  }, {
    "type" : "Feature",
    "id" : 1180,
    "geometry" : {
      "type" : "Point",
      "coordinates" : [ 24.734924, 60.201777, 5.000000 ]
    },
    "properties" : {
      "id" : 1180,
      "name" : "vt1_Espoo_Sepänkylä_OptX2",
      "collectionStatus" : "GATHERING",
      "state" : null,
      "dataUpdatedTime" : "2022-09-27T07:20:32Z"
    }
  }, {
    "type" : "Feature",
    "id" : 1183,
    "geometry" : {
      "type" : "Point",
      "coordinates" : [ 24.824601, 60.416649, 56.000000 ]
    },
    "properties" : {
      "id" : 1183,
      "name" : "vt3_Klaukkala_Nummimäki",
      "collectionStatus" : "GATHERING",
      "state" : null,
      "dataUpdatedTime" : "2022-11-12T03:05:35Z"
    }
  }, {
    "type" : "Feature",
    "id" : 1189,
    "geometry" : {
      "type" : "Point",
      "coordinates" : [ 24.240620, 60.311637, 0.000000 ]
    },
    "properties" : {
      "id" : 1189,
      "name" : "vt25_Vihti_Myllylampi_Silta_Opt2",
      "collectionStatus" : "GATHERING",
      "state" : null,
      "dataUpdatedTime" : "2022-09-27T07:20:32Z"
    }
  }, {
    "type" : "Feature",
    "id" : 2002,
    "geometry" : {
      "type" : "Point",
      "coordinates" : [ 21.594519, 60.962680, 29.000000 ]
    },
    "properties" : {
      "id" : 2002,
      "name" : "vt8_Pyhäranta_Ihode",
      "collectionStatus" : "GATHERING",
      "state" : "OK",
      "dataUpdatedTime" : "2022-12-14T05:46:52Z"
    }
  }, {
    "type" : "Feature",
    "id" : 2003,
    "geometry" : {
      "type" : "Point",
      "coordinates" : [ 21.694177, 61.280479, 40.000000 ]
    },
    "properties" : {
      "id" : 2003,
      "name" : "vt8_Eurajoki_Pinkjärvi",
      "collectionStatus" : "GATHERING",
      "state" : null,
      "dataUpdatedTime" : "2022-09-27T07:20:32Z"
    }
  }, {
    "type" : "Feature",
    "id" : 2004,
    "geometry" : {
      "type" : "Point",
      "coordinates" : [ 23.232385, 60.383077, 80.000000 ]
    },
    "properties" : {
      "id" : 2004,
      "name" : "st110_Salo_Tupuri",
      "collectionStatus" : "GATHERING",
      "state" : null,
      "dataUpdatedTime" : "2022-09-27T07:20:32Z"
    }
  }, {
    "type" : "Feature",
    "id" : 2006,
    "geometry" : {
      "type" : "Point",
      "coordinates" : [ 22.447849, 61.208550, 48.000000 ]
    },
    "properties" : {
      "id" : 2006,
      "name" : "vt2_Kokemäki_Seppälänahde",
      "collectionStatus" : "GATHERING",
      "state" : "OK",
      "dataUpdatedTime" : "2022-09-27T07:20:32Z"
    }
  }, {
    "type" : "Feature",
    "id" : 2007,
    "geometry" : {
      "type" : "Point",
      "coordinates" : [ 22.992360, 61.787861, 125.000000 ]
    },
    "properties" : {
      "id" : 2007,
      "name" : "vt3_Ikaalinen_Teikangas",
      "collectionStatus" : "GATHERING",
      "state" : null,
      "dataUpdatedTime" : "2022-09-27T07:20:32Z"
    }
  }, {
    "type" : "Feature",
    "id" : 2008,
    "geometry" : {
      "type" : "Point",
      "coordinates" : [ 21.929591, 60.737125, 35.000000 ]
    },
    "properties" : {
      "id" : 2008,
      "name" : "vt8_Mynämäki_Motelli",
      "collectionStatus" : "GATHERING",
      "state" : null,
      "dataUpdatedTime" : "2022-09-27T07:20:32Z"
    }
  }, {
    "type" : "Feature",
    "id" : 2009,
    "geometry" : {
      "type" : "Point",
      "coordinates" : [ 21.758195, 61.651109, 29.000000 ]
    },
    "properties" : {
      "id" : 2009,
      "name" : "vt8_Pori_Ahlainen",
      "collectionStatus" : "GATHERING",
      "state" : null,
      "dataUpdatedTime" : "2022-12-09T03:04:04Z"
    }
  }, {
    "type" : "Feature",
    "id" : 2010,
    "geometry" : {
      "type" : "Point",
      "coordinates" : [ 23.016630, 62.112084, 140.000000 ]
    },
    "properties" : {
      "id" : 2010,
      "name" : "vt3_Parkano_Lamminkoski",
      "collectionStatus" : "GATHERING",
      "state" : null,
      "dataUpdatedTime" : "2022-09-27T07:20:32Z"
    }
  }, {
    "type" : "Feature",
    "id" : 2011,
    "geometry" : {
      "type" : "Point",
      "coordinates" : [ 22.883857, 60.784596, 91.000000 ]
    },
    "properties" : {
      "id" : 2011,
      "name" : "vt9_Loimaa_Mellilä",
      "collectionStatus" : "GATHERING",
      "state" : null,
      "dataUpdatedTime" : "2022-09-27T07:20:32Z"
    }
  }, {
    "type" : "Feature",
    "id" : 2012,
    "geometry" : {
      "type" : "Point",
      "coordinates" : [ 23.129454, 60.691675, 86.000000 ]
    },
    "properties" : {
      "id" : 2012,
      "name" : "vt10_Koski_TL",
      "collectionStatus" : "GATHERING",
      "state" : null,
      "dataUpdatedTime" : "2022-09-27T07:20:32Z"
    }
  }, {
    "type" : "Feature",
    "id" : 2013,
    "geometry" : {
      "type" : "Point",
      "coordinates" : [ 22.347210, 61.466854, 90.000000 ]
    },
    "properties" : {
      "id" : 2013,
      "name" : "vt11_Ulvila_Sääkskoski",
      "collectionStatus" : "GATHERING",
      "state" : null,
      "dataUpdatedTime" : "2022-10-27T03:03:47Z"
    }
  }, {
    "type" : "Feature",
    "id" : 2014,
    "geometry" : {
      "type" : "Point",
      "coordinates" : [ 22.290034, 61.800246, 85.000000 ]
    },
    "properties" : {
      "id" : 2014,
      "name" : "vt23_Kankaanpää_Hapua",
      "collectionStatus" : "GATHERING",
      "state" : null,
      "dataUpdatedTime" : "2022-09-27T07:20:32Z"
    }
  }, {
    "type" : "Feature",
    "id" : 2015,
    "geometry" : {
      "type" : "Point",
      "coordinates" : [ 22.382762, 60.467151, 44.000000 ]
    },
    "properties" : {
      "id" : 2015,
      "name" : "kt40_Lieto_Auranlaakso",
      "collectionStatus" : "REMOVED_TEMPORARILY",
      "state" : null,
      "dataUpdatedTime" : "2022-09-27T07:20:32Z"
    }
  }, {
    "type" : "Feature",
    "id" : 2016,
    "geometry" : {
      "type" : "Point",
      "coordinates" : [ 22.656507, 61.109734, 60.000000 ]
    },
    "properties" : {
      "id" : 2016,
      "name" : "kt41_Huittinen_Jokisivu",
      "collectionStatus" : "GATHERING",
      "state" : null,
      "dataUpdatedTime" : "2022-09-27T07:20:32Z"
    }
  }, {
    "type" : "Feature",
    "id" : 2017,
    "geometry" : {
      "type" : "Point",
      "coordinates" : [ 23.117187, 61.367909, 87.000000 ]
    },
    "properties" : {
      "id" : 2017,
      "name" : "vt12_Sastamala_Kärppälä",
      "collectionStatus" : "GATHERING",
      "state" : null,
      "dataUpdatedTime" : "2022-09-27T07:20:32Z"
    }
  }, {
    "type" : "Feature",
    "id" : 2018,
    "geometry" : {
      "type" : "Point",
      "coordinates" : [ 23.148542, 60.173689, 23.000000 ]
    },
    "properties" : {
      "id" : 2018,
      "name" : "kt52_Salo_Perniö",
      "collectionStatus" : "GATHERING",
      "state" : "OK",
      "dataUpdatedTime" : "2022-12-08T06:57:53Z"
    }
  }, {
    "type" : "Feature",
    "id" : 2019,
    "geometry" : {
      "type" : "Point",
      "coordinates" : [ 22.325291, 60.314314, 0.000000 ]
    },
    "properties" : {
      "id" : 2019,
      "name" : "st180_Parainen",
      "collectionStatus" : "GATHERING",
      "state" : null,
      "dataUpdatedTime" : "2022-09-27T07:20:32Z"
    }
  }, {
    "type" : "Feature",
    "id" : 2020,
    "geometry" : {
      "type" : "Point",
      "coordinates" : [ 21.632530, 61.532138, 5.000000 ]
    },
    "properties" : {
      "id" : 2020,
      "name" : "vt2_Pori_Kähkönen",
      "collectionStatus" : "GATHERING",
      "state" : null,
      "dataUpdatedTime" : "2022-09-27T07:20:32Z"
    }
  }, {
    "type" : "Feature",
    "id" : 2022,
    "geometry" : {
      "type" : "Point",
      "coordinates" : [ 21.742946, 60.627720, 18.000000 ]
    },
    "properties" : {
      "id" : 2022,
      "name" : "st192_Vehmaa_Vehmassalmi_R",
      "collectionStatus" : "GATHERING",
      "state" : null,
      "dataUpdatedTime" : "2022-09-27T07:20:32Z"
    }
  }, {
    "type" : "Feature",
    "id" : 2023,
    "geometry" : {
      "type" : "Point",
      "coordinates" : [ 22.485968, 60.044041, 13.000000 ]
    },
    "properties" : {
      "id" : 2023,
      "name" : "st183_Kemiönsaari_Taalintehdas",
      "collectionStatus" : "GATHERING",
      "state" : null,
      "dataUpdatedTime" : "2022-10-04T11:39:13Z"
    }
  }, {
    "type" : "Feature",
    "id" : 2025,
    "geometry" : {
      "type" : "Point",
      "coordinates" : [ 21.615500, 60.831722, 20.000000 ]
    },
    "properties" : {
      "id" : 2025,
      "name" : "kt43_Uusikaupunki_Kalanti",
      "collectionStatus" : "GATHERING",
      "state" : null,
      "dataUpdatedTime" : "2022-09-27T07:20:32Z"
    }
  }, {
    "type" : "Feature",
    "id" : 2026,
    "geometry" : {
      "type" : "Point",
      "coordinates" : [ 21.624488, 61.943607, 0.000000 ]
    },
    "properties" : {
      "id" : 2026,
      "name" : "vt8_Merikarvia_Kuvaskangas",
      "collectionStatus" : "GATHERING",
      "state" : null,
      "dataUpdatedTime" : "2022-09-27T07:20:32Z"
    }
  }, {
    "type" : "Feature",
    "id" : 2027,
    "geometry" : {
      "type" : "Point",
      "coordinates" : [ 22.510463, 60.615549, 54.000000 ]
    },
    "properties" : {
      "id" : 2027,
      "name" : "vt9_Aura_Järvenoja",
      "collectionStatus" : "GATHERING",
      "state" : null,
      "dataUpdatedTime" : "2022-09-27T07:20:32Z"
    }
  }, {
    "type" : "Feature",
    "id" : 2028,
    "geometry" : {
      "type" : "Point",
      "coordinates" : [ 22.622723, 60.542807, 40.000000 ]
    },
    "properties" : {
      "id" : 2028,
      "name" : "vt10_Lieto_Yliskulma",
      "collectionStatus" : "GATHERING",
      "state" : null,
      "dataUpdatedTime" : "2022-09-27T07:20:32Z"
    }
  }, {
    "type" : "Feature",
    "id" : 2029,
    "geometry" : {
      "type" : "Point",
      "coordinates" : [ 22.177219, 61.137375, 52.000000 ]
    },
    "properties" : {
      "id" : 2029,
      "name" : "vt12_Eura",
      "collectionStatus" : "GATHERING",
      "state" : "OK",
      "dataUpdatedTime" : "2022-10-14T11:52:48Z"
    }
  }, {
    "type" : "Feature",
    "id" : 2030,
    "geometry" : {
      "type" : "Point",
      "coordinates" : [ 22.286833, 60.497499, 0.000000 ]
    },
    "properties" : {
      "id" : 2030,
      "name" : "kt40_Turku_Kärsämäki",
      "collectionStatus" : "GATHERING",
      "state" : null,
      "dataUpdatedTime" : "2022-09-27T07:20:32Z"
    }
  }, {
    "type" : "Feature",
    "id" : 2031,
    "geometry" : {
      "type" : "Point",
      "coordinates" : [ 22.284284, 60.497849, 0.000000 ]
    },
    "properties" : {
      "id" : 2031,
      "name" : "vt9_Turku_Kärsämäki",
      "collectionStatus" : "GATHERING",
      "state" : "OK_FAULT_DOUBT_CANCELLED",
      "dataUpdatedTime" : "2022-12-05T06:40:06Z"
    }
  }, {
    "type" : "Feature",
    "id" : 2032,
    "geometry" : {
      "type" : "Point",
      "coordinates" : [ 22.948212, 60.377119, 0.000000 ]
    },
    "properties" : {
      "id" : 2032,
      "name" : "st110_Salo_Korvenpää",
      "collectionStatus" : "GATHERING",
      "state" : null,
      "dataUpdatedTime" : "2022-09-27T07:20:32Z"
    }
  }, {
    "type" : "Feature",
    "id" : 2033,
    "geometry" : {
      "type" : "Point",
      "coordinates" : [ 22.766667, 60.416416, 0.000000 ]
    },
    "properties" : {
      "id" : 2033,
      "name" : "st110_Paimio_Kevola_R",
      "collectionStatus" : "GATHERING",
      "state" : "REPAIR_MAINTENANCE_DONE",
      "dataUpdatedTime" : "2022-09-27T07:20:32Z"
    }
  }, {
    "type" : "Feature",
    "id" : 2034,
    "geometry" : {
      "type" : "Point",
      "coordinates" : [ 21.786280, 60.169432, 0.000000 ]
    },
    "properties" : {
      "id" : 2034,
      "name" : "st180_Parainen_Nauvo_R",
      "collectionStatus" : "GATHERING",
      "state" : null,
      "dataUpdatedTime" : "2022-09-27T07:20:32Z"
    }
  }, {
    "type" : "Feature",
    "id" : 2035,
    "geometry" : {
      "type" : "Point",
      "coordinates" : [ 22.304649, 60.446646, 0.000000 ]
    },
    "properties" : {
      "id" : 2035,
      "name" : "vt1_Turku_Kupittaa_R",
      "collectionStatus" : "GATHERING",
      "state" : null,
      "dataUpdatedTime" : "2022-09-27T07:20:32Z"
    }
  }, {
    "type" : "Feature",
    "id" : 2036,
    "geometry" : {
      "type" : "Point",
      "coordinates" : [ 22.304649, 60.446646, 0.000000 ]
    },
    "properties" : {
      "id" : 2036,
      "name" : "vt1_Turku_Kupittaa_O",
      "collectionStatus" : "GATHERING",
      "state" : null,
      "dataUpdatedTime" : "2022-09-27T07:20:32Z"
    }
  }, {
    "type" : "Feature",
    "id" : 2037,
    "geometry" : {
      "type" : "Point",
      "coordinates" : [ 22.402281, 60.424010, 0.000000 ]
    },
    "properties" : {
      "id" : 2037,
      "name" : "vt1_Kaarina_Hiiskanmäki",
      "collectionStatus" : "GATHERING",
      "state" : null,
      "dataUpdatedTime" : "2022-09-27T07:20:32Z"
    }
  }, {
    "type" : "Feature",
    "id" : 2039,
    "geometry" : {
      "type" : "Point",
      "coordinates" : [ 22.534723, 60.445870, 0.000000 ]
    },
    "properties" : {
      "id" : 2039,
      "name" : "vt1_Kaarina_Piikkiö_S",
      "collectionStatus" : "GATHERING",
      "state" : null,
      "dataUpdatedTime" : "2022-09-27T07:20:32Z"
    }
  }, {
    "type" : "Feature",
    "id" : 2041,
    "geometry" : {
      "type" : "Point",
      "coordinates" : [ 22.683010, 60.423384, 0.000000 ]
    },
    "properties" : {
      "id" : 2041,
      "name" : "vt1_Paimio_Valkoja",
      "collectionStatus" : "GATHERING",
      "state" : null,
      "dataUpdatedTime" : "2022-11-04T03:04:18Z"
    }
  }, {
    "type" : "Feature",
    "id" : 2043,
    "geometry" : {
      "type" : "Point",
      "coordinates" : [ 22.840145, 60.428319, 0.000000 ]
    },
    "properties" : {
      "id" : 2043,
      "name" : "vt1_Paimio_Pitkäporras",
      "collectionStatus" : "GATHERING",
      "state" : null,
      "dataUpdatedTime" : "2022-09-27T07:20:32Z"
    }
  }, {
    "type" : "Feature",
    "id" : 2045,
    "geometry" : {
      "type" : "Point",
      "coordinates" : [ 22.969139, 60.435149, 0.000000 ]
    },
    "properties" : {
      "id" : 2045,
      "name" : "vt1_Salo_Hajala",
      "collectionStatus" : "GATHERING",
      "state" : null,
      "dataUpdatedTime" : "2022-11-04T03:04:16Z"
    }
  }, {
    "type" : "Feature",
    "id" : 2047,
    "geometry" : {
      "type" : "Point",
      "coordinates" : [ 23.106354, 60.417300, 0.000000 ]
    },
    "properties" : {
      "id" : 2047,
      "name" : "vt1_Salo_Halikko",
      "collectionStatus" : "GATHERING",
      "state" : null,
      "dataUpdatedTime" : "2022-09-27T07:20:32Z"
    }
  }, {
    "type" : "Feature",
    "id" : 2049,
    "geometry" : {
      "type" : "Point",
      "coordinates" : [ 23.211233, 60.407402, 0.000000 ]
    },
    "properties" : {
      "id" : 2049,
      "name" : "vt1_Salo_Haukkala",
      "collectionStatus" : "GATHERING",
      "state" : "OK",
      "dataUpdatedTime" : "2022-09-27T07:20:32Z"
    }
  }, {
    "type" : "Feature",
    "id" : 2052,
    "geometry" : {
      "type" : "Point",
      "coordinates" : [ 19.618722, 60.211657, 0.000000 ]
    },
    "properties" : {
      "id" : 2052,
      "name" : "Åland_Eckerö_K",
      "collectionStatus" : "GATHERING",
      "state" : null,
      "dataUpdatedTime" : "2022-09-27T07:20:32Z"
    }
  }, {
    "type" : "Feature",
    "id" : 2054,
    "geometry" : {
      "type" : "Point",
      "coordinates" : [ 21.081853, 60.463620, 0.000000 ]
    },
    "properties" : {
      "id" : 2054,
      "name" : "Åland_Åva_K",
      "collectionStatus" : "GATHERING",
      "state" : null,
      "dataUpdatedTime" : "2022-09-27T07:20:32Z"
    }
  }, {
    "type" : "Feature",
    "id" : 2059,
    "geometry" : {
      "type" : "Point",
      "coordinates" : [ 23.291923, 60.388679, 0.000000 ]
    },
    "properties" : {
      "id" : 2059,
      "name" : "vt1_Salo_Muurla",
      "collectionStatus" : "GATHERING",
      "state" : null,
      "dataUpdatedTime" : "2022-09-27T07:20:32Z"
    }
  }, {
    "type" : "Feature",
    "id" : 2061,
    "geometry" : {
      "type" : "Point",
      "coordinates" : [ 23.748878, 60.381313, 0.000000 ]
    },
    "properties" : {
      "id" : 2061,
      "name" : "st110_Salo_Kettulanmäki_R",
      "collectionStatus" : "GATHERING",
      "state" : null,
      "dataUpdatedTime" : "2022-09-27T07:20:32Z"
    }
  }, {
    "type" : "Feature",
    "id" : 2062,
    "geometry" : {
      "type" : "Point",
      "coordinates" : [ 23.663891, 60.372046, 0.000000 ]
    },
    "properties" : {
      "id" : 2062,
      "name" : "st110_Salo_Kolmperä",
      "collectionStatus" : "GATHERING",
      "state" : null,
      "dataUpdatedTime" : "2022-09-27T07:20:32Z"
    }
  }, {
    "type" : "Feature",
    "id" : 2063,
    "geometry" : {
      "type" : "Point",
      "coordinates" : [ 23.575594, 60.380729, 0.000000 ]
    },
    "properties" : {
      "id" : 2063,
      "name" : "st110_Salo_Aneriojärvi_R",
      "collectionStatus" : "GATHERING",
      "state" : null,
      "dataUpdatedTime" : "2022-09-27T07:20:32Z"
    }
  }, {
    "type" : "Feature",
    "id" : 2065,
    "geometry" : {
      "type" : "Point",
      "coordinates" : [ 23.413415, 60.369560, 0.000000 ]
    },
    "properties" : {
      "id" : 2065,
      "name" : "st110_Salo_Valkjärvi_R",
      "collectionStatus" : "GATHERING",
      "state" : null,
      "dataUpdatedTime" : "2022-09-27T07:20:32Z"
    }
  }, {
    "type" : "Feature",
    "id" : 2087,
    "geometry" : {
      "type" : "Point",
      "coordinates" : [ 22.426053, 60.497686, 220.000000 ]
    },
    "properties" : {
      "id" : 2087,
      "name" : "vt10_Lieto_Vierunkoski",
      "collectionStatus" : "GATHERING",
      "state" : null,
      "dataUpdatedTime" : "2022-09-27T07:20:32Z"
    }
  }, {
    "type" : "Feature",
    "id" : 2088,
    "geometry" : {
      "type" : "Point",
      "coordinates" : [ 22.358600, 60.367585, 0.000000 ]
    },
    "properties" : {
      "id" : 2088,
      "name" : "st180_Kaarina_Kirjalansalmi",
      "collectionStatus" : "GATHERING",
      "state" : null,
      "dataUpdatedTime" : "2022-09-27T07:20:32Z"
    }
  }, {
    "type" : "Feature",
    "id" : 2090,
    "geometry" : {
      "type" : "Point",
      "coordinates" : [ 21.569286, 61.150155, 0.000000 ]
    },
    "properties" : {
      "id" : 2090,
      "name" : "vt8_Rauma_Luostarinkylä_Opt1",
      "collectionStatus" : "GATHERING",
      "state" : null,
      "dataUpdatedTime" : "2022-09-27T07:20:32Z"
    }
  }, {
    "type" : "Feature",
    "id" : 2097,
    "geometry" : {
      "type" : "Point",
      "coordinates" : [ 22.123911, 60.549148, 45.000000 ]
    },
    "properties" : {
      "id" : 2097,
      "name" : "vt8_Masku_Humikkala",
      "collectionStatus" : "GATHERING",
      "state" : "OK_FAULT_DOUBT_CANCELLED",
      "dataUpdatedTime" : "2022-12-05T06:39:43Z"
    }
  }, {
    "type" : "Feature",
    "id" : 2122,
    "geometry" : {
      "type" : "Point",
      "coordinates" : [ 22.550660, 60.445262, 0.000000 ]
    },
    "properties" : {
      "id" : 2122,
      "name" : "vt1_Kaarina_Makarla_Opt1",
      "collectionStatus" : "GATHERING",
      "state" : null,
      "dataUpdatedTime" : "2022-09-27T07:20:32Z"
    }
  }, {
    "type" : "Feature",
    "id" : 2124,
    "geometry" : {
      "type" : "Point",
      "coordinates" : [ 21.983758, 60.459147, 20.000000 ]
    },
    "properties" : {
      "id" : 2124,
      "name" : "st189_Naantali_Luonnonmaa",
      "collectionStatus" : "GATHERING",
      "state" : null,
      "dataUpdatedTime" : "2022-09-27T07:20:32Z"
    }
  }, {
    "type" : "Feature",
    "id" : 2126,
    "geometry" : {
      "type" : "Point",
      "coordinates" : [ 22.849562, 61.106727, 0.000000 ]
    },
    "properties" : {
      "id" : 2126,
      "name" : "vt2_Huittinen_Korvenmaa",
      "collectionStatus" : "GATHERING",
      "state" : null,
      "dataUpdatedTime" : "2022-09-27T07:20:32Z"
    }
  }, {
    "type" : "Feature",
    "id" : 2131,
    "geometry" : {
      "type" : "Point",
      "coordinates" : [ 22.740708, 60.163807, 0.000000 ]
    },
    "properties" : {
      "id" : 2131,
      "name" : "st183_Kemiönsaari_Engelsby_K",
      "collectionStatus" : "GATHERING",
      "state" : null,
      "dataUpdatedTime" : "2022-09-27T07:20:32Z"
    }
  }, {
    "type" : "Feature",
    "id" : 3001,
    "geometry" : {
      "type" : "Point",
      "coordinates" : [ 26.995752, 60.550431, 0.000000 ]
    },
    "properties" : {
      "id" : 3001,
      "name" : "vt7_Kotka_Karhunkangas",
      "collectionStatus" : "GATHERING",
      "state" : null,
      "dataUpdatedTime" : "2022-12-06T03:02:53Z"
    }
  }, {
    "type" : "Feature",
    "id" : 3002,
    "geometry" : {
      "type" : "Point",
      "coordinates" : [ 27.088203, 60.569293, 0.000000 ]
    },
    "properties" : {
      "id" : 3002,
      "name" : "vt7_Hamina_Summa",
      "collectionStatus" : "GATHERING",
      "state" : null,
      "dataUpdatedTime" : "2022-09-27T07:20:32Z"
    }
  }, {
    "type" : "Feature",
    "id" : 3003,
    "geometry" : {
      "type" : "Point",
      "coordinates" : [ 28.262171, 61.482832, 0.000000 ]
    },
    "properties" : {
      "id" : 3003,
      "name" : "kt62_Puumala_Huuhkaala",
      "collectionStatus" : "GATHERING",
      "state" : null,
      "dataUpdatedTime" : "2022-09-28T08:53:35Z"
    }
  }, {
    "type" : "Feature",
    "id" : 3004,
    "geometry" : {
      "type" : "Point",
      "coordinates" : [ 27.249406, 61.677657, 0.000000 ]
    },
    "properties" : {
      "id" : 3004,
      "name" : "vt5_Mikkeli",
      "collectionStatus" : "GATHERING",
      "state" : null,
      "dataUpdatedTime" : "2022-09-27T07:20:32Z"
    }
  }, {
    "type" : "Feature",
    "id" : 3005,
    "geometry" : {
      "type" : "Point",
      "coordinates" : [ 29.197074, 61.843469, 0.000000 ]
    },
    "properties" : {
      "id" : 3005,
      "name" : "vt14_Savonlinna_Kulennoinen",
      "collectionStatus" : "GATHERING",
      "state" : null,
      "dataUpdatedTime" : "2022-09-28T08:54:37Z"
    }
  }, {
    "type" : "Feature",
    "id" : 3006,
    "geometry" : {
      "type" : "Point",
      "coordinates" : [ 26.883019, 60.501096, 7.000000 ]
    },
    "properties" : {
      "id" : 3006,
      "name" : "vt7_Kotka_Sutela",
      "collectionStatus" : "GATHERING",
      "state" : null,
      "dataUpdatedTime" : "2022-09-27T07:20:32Z"
    }
  }, {
    "type" : "Feature",
    "id" : 3007,
    "geometry" : {
      "type" : "Point",
      "coordinates" : [ 26.800056, 60.496159, 0.000000 ]
    },
    "properties" : {
      "id" : 3007,
      "name" : "st170_Pyhtää_Mokra_R",
      "collectionStatus" : "GATHERING",
      "state" : "OK",
      "dataUpdatedTime" : "2022-09-27T07:20:32Z"
    }
  }, {
    "type" : "Feature",
    "id" : 3011,
    "geometry" : {
      "type" : "Point",
      "coordinates" : [ 27.059063, 61.074285, 0.000000 ]
    },
    "properties" : {
      "id" : 3011,
      "name" : "vt15_Kouvola_Tuohikotti_ET",
      "collectionStatus" : "GATHERING",
      "state" : null,
      "dataUpdatedTime" : "2022-11-30T13:14:25Z"
    }
  }, {
    "type" : "Feature",
    "id" : 3012,
    "geometry" : {
      "type" : "Point",
      "coordinates" : [ 28.363533, 61.038441, 0.000000 ]
    },
    "properties" : {
      "id" : 3012,
      "name" : "vt13_Lappeenranta_Karhusjärvi",
      "collectionStatus" : "GATHERING",
      "state" : null,
      "dataUpdatedTime" : "2022-09-27T07:20:32Z"
    }
  }, {
    "type" : "Feature",
    "id" : 3014,
    "geometry" : {
      "type" : "Point",
      "coordinates" : [ 26.921375, 60.463926, 0.000000 ]
    },
    "properties" : {
      "id" : 3014,
      "name" : "vt15_Kotka_Kotkansaari",
      "collectionStatus" : "GATHERING",
      "state" : null,
      "dataUpdatedTime" : "2022-09-27T07:20:32Z"
    }
  }, {
    "type" : "Feature",
    "id" : 3022,
    "geometry" : {
      "type" : "Point",
      "coordinates" : [ 26.386503, 61.399125, 0.000000 ]
    },
    "properties" : {
      "id" : 3022,
      "name" : "vt5_Pertunmaa_Kuortti",
      "collectionStatus" : "GATHERING",
      "state" : "OK",
      "dataUpdatedTime" : "2022-10-20T06:36:19Z"
    }
  }, {
    "type" : "Feature",
    "id" : 3026,
    "geometry" : {
      "type" : "Point",
      "coordinates" : [ 26.800056, 60.496159, 0.000000 ]
    },
    "properties" : {
      "id" : 3026,
      "name" : "st170_Pyhtää_Mokra_Opt",
      "collectionStatus" : "GATHERING",
      "state" : null,
      "dataUpdatedTime" : "2022-09-27T07:20:32Z"
    }
  }, {
    "type" : "Feature",
    "id" : 3031,
    "geometry" : {
      "type" : "Point",
      "coordinates" : [ 28.088567, 61.136705, 0.000000 ]
    },
    "properties" : {
      "id" : 3031,
      "name" : "st408_Taipalsaari_Saimaanharju_K",
      "collectionStatus" : "GATHERING",
      "state" : "REPAIR_INTERRUPTED",
      "dataUpdatedTime" : "2022-11-01T13:31:20Z"
    }
  }, {
    "type" : "Feature",
    "id" : 3032,
    "geometry" : {
      "type" : "Point",
      "coordinates" : [ 27.622619, 61.588222, 0.000000 ]
    },
    "properties" : {
      "id" : 3032,
      "name" : "kt62_Mikkeli_Anttola_K",
      "collectionStatus" : "GATHERING",
      "state" : null,
      "dataUpdatedTime" : "2022-09-27T07:20:32Z"
    }
  }, {
    "type" : "Feature",
    "id" : 3034,
    "geometry" : {
      "type" : "Point",
      "coordinates" : [ 27.396584, 60.563741, 0.000000 ]
    },
    "properties" : {
      "id" : 3034,
      "name" : "st170_Virolahti_Kattilainen_R",
      "collectionStatus" : "GATHERING",
      "state" : null,
      "dataUpdatedTime" : "2022-09-27T07:20:32Z"
    }
  }, {
    "type" : "Feature",
    "id" : 3035,
    "geometry" : {
      "type" : "Point",
      "coordinates" : [ 27.396584, 60.563741, 0.000000 ]
    },
    "properties" : {
      "id" : 3035,
      "name" : "st170_Virolahti_Kattilainen_Opt",
      "collectionStatus" : "GATHERING",
      "state" : null,
      "dataUpdatedTime" : "2022-09-27T07:20:32Z"
    }
  }, {
    "type" : "Feature",
    "id" : 3036,
    "geometry" : {
      "type" : "Point",
      "coordinates" : [ 28.124300, 61.036434, 0.000000 ]
    },
    "properties" : {
      "id" : 3036,
      "name" : "vt6_Lappeenranta_Kärki",
      "collectionStatus" : "GATHERING",
      "state" : "REPAIR_INTERRUPTED",
      "dataUpdatedTime" : "2022-10-28T04:56:48Z"
    }
  }, {
    "type" : "Feature",
    "id" : 3043,
    "geometry" : {
      "type" : "Point",
      "coordinates" : [ 27.216293, 60.630506, 0.000000 ]
    },
    "properties" : {
      "id" : 3043,
      "name" : "vt26_Hamina_Myllykylä",
      "collectionStatus" : "GATHERING",
      "state" : null,
      "dataUpdatedTime" : "2022-09-27T07:20:32Z"
    }
  }, {
    "type" : "Feature",
    "id" : 3049,
    "geometry" : {
      "type" : "Point",
      "coordinates" : [ 26.819470, 60.886259, 0.000000 ]
    },
    "properties" : {
      "id" : 3049,
      "name" : "vt6_Kouvola_Utti",
      "collectionStatus" : "GATHERING",
      "state" : null,
      "dataUpdatedTime" : "2022-09-27T07:20:32Z"
    }
  }, {
    "type" : "Feature",
    "id" : 3051,
    "geometry" : {
      "type" : "Point",
      "coordinates" : [ 26.701896, 60.499890, 7.000000 ]
    },
    "properties" : {
      "id" : 3051,
      "name" : "vt7_Pyhtää_Siltakylä",
      "collectionStatus" : "GATHERING",
      "state" : null,
      "dataUpdatedTime" : "2022-09-27T07:20:32Z"
    }
  }, {
    "type" : "Feature",
    "id" : 3056,
    "geometry" : {
      "type" : "Point",
      "coordinates" : [ 27.255293, 60.595403, 7.000000 ]
    },
    "properties" : {
      "id" : 3056,
      "name" : "vt7_Hamina_Kolsila_itä",
      "collectionStatus" : "GATHERING",
      "state" : null,
      "dataUpdatedTime" : "2022-09-27T07:20:32Z"
    }
  }, {
    "type" : "Feature",
    "id" : 3064,
    "geometry" : {
      "type" : "Point",
      "coordinates" : [ 27.166383, 60.592428, 7.000000 ]
    },
    "properties" : {
      "id" : 3064,
      "name" : "vt7_Hamina_Husula",
      "collectionStatus" : "GATHERING",
      "state" : null,
      "dataUpdatedTime" : "2022-09-27T07:20:32Z"
    }
  }, {
    "type" : "Feature",
    "id" : 3072,
    "geometry" : {
      "type" : "Point",
      "coordinates" : [ 28.651145, 60.880972, 40.000000 ]
    },
    "properties" : {
      "id" : 3072,
      "name" : "Saimaan_Kanavatie",
      "collectionStatus" : "GATHERING",
      "state" : null,
      "dataUpdatedTime" : "2022-09-27T07:20:32Z"
    }
  }, {
    "type" : "Feature",
    "id" : 3074,
    "geometry" : {
      "type" : "Point",
      "coordinates" : [ 27.475349, 60.596463, 24.000000 ]
    },
    "properties" : {
      "id" : 3074,
      "name" : "vt7_Virolahti_Ravijoki",
      "collectionStatus" : "GATHERING",
      "state" : null,
      "dataUpdatedTime" : "2022-09-27T07:20:32Z"
    }
  }, {
    "type" : "Feature",
    "id" : 3075,
    "geometry" : {
      "type" : "Point",
      "coordinates" : [ 27.756659, 60.605852, 30.000000 ]
    },
    "properties" : {
      "id" : 3075,
      "name" : "vt7_Virolahti_Mattila",
      "collectionStatus" : "GATHERING",
      "state" : null,
      "dataUpdatedTime" : "2022-09-27T07:20:32Z"
    }
  }, {
    "type" : "Feature",
    "id" : 3089,
    "geometry" : {
      "type" : "Point",
      "coordinates" : [ 29.340937, 61.419383, 0.000000 ]
    },
    "properties" : {
      "id" : 3089,
      "name" : "vt6_Rautjärvi_Simpele",
      "collectionStatus" : "GATHERING",
      "state" : null,
      "dataUpdatedTime" : "2022-09-27T07:20:32Z"
    }
  }, {
    "type" : "Feature",
    "id" : 4001,
    "geometry" : {
      "type" : "Point",
      "coordinates" : [ 25.613012, 60.907742, 70.000000 ]
    },
    "properties" : {
      "id" : 4001,
      "name" : "vt4_Hollola_Miekkiö",
      "collectionStatus" : "GATHERING",
      "state" : null,
      "dataUpdatedTime" : "2022-09-27T07:20:32Z"
    }
  }, {
    "type" : "Feature",
    "id" : 4002,
    "geometry" : {
      "type" : "Point",
      "coordinates" : [ 25.349865, 61.226205, 125.000000 ]
    },
    "properties" : {
      "id" : 4002,
      "name" : "vt24_Asikkala_Iso-Äiniö",
      "collectionStatus" : "GATHERING",
      "state" : null,
      "dataUpdatedTime" : "2022-09-27T07:20:32Z"
    }
  }, {
    "type" : "Feature",
    "id" : 4003,
    "geometry" : {
      "type" : "Point",
      "coordinates" : [ 23.334059, 60.956006, 100.000000 ]
    },
    "properties" : {
      "id" : 4003,
      "name" : "vt2_Humppila_Koenjoki",
      "collectionStatus" : "GATHERING",
      "state" : null,
      "dataUpdatedTime" : "2022-09-27T07:20:32Z"
    }
  }, {
    "type" : "Feature",
    "id" : 4004,
    "geometry" : {
      "type" : "Point",
      "coordinates" : [ 24.490775, 60.954417, 120.000000 ]
    },
    "properties" : {
      "id" : 4004,
      "name" : "vt3_Hämeenlinna_Miemala",
      "collectionStatus" : "GATHERING",
      "state" : null,
      "dataUpdatedTime" : "2022-09-27T07:20:32Z"
    }
  }, {
    "type" : "Feature",
    "id" : 4005,
    "geometry" : {
      "type" : "Point",
      "coordinates" : [ 23.422976, 61.501564, 155.000000 ]
    },
    "properties" : {
      "id" : 4005,
      "name" : "vt11_Nokia_Sorrinlammi",
      "collectionStatus" : "GATHERING",
      "state" : null,
      "dataUpdatedTime" : "2022-09-27T07:20:32Z"
    }
  }, {
    "type" : "Feature",
    "id" : 4006,
    "geometry" : {
      "type" : "Point",
      "coordinates" : [ 23.765038, 61.408411, 130.000000 ]
    },
    "properties" : {
      "id" : 4006,
      "name" : "vt3_Lempäälä_Kulju",
      "collectionStatus" : "GATHERING",
      "state" : "REPAIR_MAINTENANCE_DONE",
      "dataUpdatedTime" : "2022-12-18T22:59:53Z"
    }
  }, {
    "type" : "Feature",
    "id" : 4007,
    "geometry" : {
      "type" : "Point",
      "coordinates" : [ 24.058328, 61.148562, 90.000000 ]
    },
    "properties" : {
      "id" : 4007,
      "name" : "st130_Valkeakoski_Jutikkala_R",
      "collectionStatus" : "GATHERING",
      "state" : null,
      "dataUpdatedTime" : "2022-09-27T07:20:32Z"
    }
  }, {
    "type" : "Feature",
    "id" : 4008,
    "geometry" : {
      "type" : "Point",
      "coordinates" : [ 24.013066, 60.827995, 140.000000 ]
    },
    "properties" : {
      "id" : 4008,
      "name" : "vt10_Tammela_Heinivaho",
      "collectionStatus" : "GATHERING",
      "state" : "OK_FAULT_DOUBT_CANCELLED",
      "dataUpdatedTime" : "2022-09-27T07:20:32Z"
    }
  }, {
    "type" : "Feature",
    "id" : 4009,
    "geometry" : {
      "type" : "Point",
      "coordinates" : [ 24.737346, 60.706054, 100.000000 ]
    },
    "properties" : {
      "id" : 4009,
      "name" : "vt3_Riihimäki_Parmala",
      "collectionStatus" : "GATHERING",
      "state" : null,
      "dataUpdatedTime" : "2022-09-27T07:20:32Z"
    }
  }, {
    "type" : "Feature",
    "id" : 4010,
    "geometry" : {
      "type" : "Point",
      "coordinates" : [ 25.281987, 61.004725, 130.000000 ]
    },
    "properties" : {
      "id" : 4010,
      "name" : "vt12_Hollola_Hämeenkoski",
      "collectionStatus" : "GATHERING",
      "state" : "OK",
      "dataUpdatedTime" : "2022-11-15T08:06:51Z"
    }
  }, {
    "type" : "Feature",
    "id" : 4011,
    "geometry" : {
      "type" : "Point",
      "coordinates" : [ 24.681809, 61.159489, 100.000000 ]
    },
    "properties" : {
      "id" : 4011,
      "name" : "vt12_Hämeenlinna_Hauho",
      "collectionStatus" : "GATHERING",
      "state" : null,
      "dataUpdatedTime" : "2022-09-27T07:20:32Z"
    }
  }, {
    "type" : "Feature",
    "id" : 4012,
    "geometry" : {
      "type" : "Point",
      "coordinates" : [ 24.293627, 61.308423, 105.000000 ]
    },
    "properties" : {
      "id" : 4012,
      "name" : "vt12_Pälkäne_Kollolanharju",
      "collectionStatus" : "GATHERING",
      "state" : null,
      "dataUpdatedTime" : "2022-09-27T07:20:32Z"
    }
  }, {
    "type" : "Feature",
    "id" : 4013,
    "geometry" : {
      "type" : "Point",
      "coordinates" : [ 24.219303, 61.645095, 150.000000 ]
    },
    "properties" : {
      "id" : 4013,
      "name" : "vt9_Orivesi_Kutema",
      "collectionStatus" : "GATHERING",
      "state" : null,
      "dataUpdatedTime" : "2022-09-27T07:20:32Z"
    }
  }, {
    "type" : "Feature",
    "id" : 4015,
    "geometry" : {
      "type" : "Point",
      "coordinates" : [ 24.024142, 62.017254, 120.000000 ]
    },
    "properties" : {
      "id" : 4015,
      "name" : "kt66_Ruovesi_Ruojärvi_R",
      "collectionStatus" : "GATHERING",
      "state" : null,
      "dataUpdatedTime" : "2022-09-27T07:20:32Z"
    }
  }, {
    "type" : "Feature",
    "id" : 4016,
    "geometry" : {
      "type" : "Point",
      "coordinates" : [ 23.807369, 62.248890, 130.000000 ]
    },
    "properties" : {
      "id" : 4016,
      "name" : "vt23_Virrat_Puttoskylä",
      "collectionStatus" : "GATHERING",
      "state" : "OK_FAULT_DOUBT_CANCELLED",
      "dataUpdatedTime" : "2022-11-11T08:03:30Z"
    }
  }, {
    "type" : "Feature",
    "id" : 4017,
    "geometry" : {
      "type" : "Point",
      "coordinates" : [ 23.917511, 61.497141, 120.000000 ]
    },
    "properties" : {
      "id" : 4017,
      "name" : "vt12_Tampere_Atala",
      "collectionStatus" : "GATHERING",
      "state" : null,
      "dataUpdatedTime" : "2022-09-27T07:20:32Z"
    }
  }, {
    "type" : "Feature",
    "id" : 4020,
    "geometry" : {
      "type" : "Point",
      "coordinates" : [ 23.699541, 61.507698, 100.000000 ]
    },
    "properties" : {
      "id" : 4020,
      "name" : "vt12_Tre_Paasikiventie",
      "collectionStatus" : "GATHERING",
      "state" : null,
      "dataUpdatedTime" : "2022-12-08T03:03:41Z"
    }
  }, {
    "type" : "Feature",
    "id" : 4021,
    "geometry" : {
      "type" : "Point",
      "coordinates" : [ 23.647442, 61.115356, 100.000000 ]
    },
    "properties" : {
      "id" : 4021,
      "name" : "vt9_Akaa_Kylmäkoski",
      "collectionStatus" : "GATHERING",
      "state" : null,
      "dataUpdatedTime" : "2022-11-26T03:04:24Z"
    }
  }, {
    "type" : "Feature",
    "id" : 4022,
    "geometry" : {
      "type" : "Point",
      "coordinates" : [ 25.056720, 60.819556, 100.000000 ]
    },
    "properties" : {
      "id" : 4022,
      "name" : "kt54_Hausjärvi_Mommila",
      "collectionStatus" : "GATHERING",
      "state" : null,
      "dataUpdatedTime" : "2022-09-27T07:20:32Z"
    }
  }, {
    "type" : "Feature",
    "id" : 4023,
    "geometry" : {
      "type" : "Point",
      "coordinates" : [ 24.610931, 61.977972, 105.000000 ]
    },
    "properties" : {
      "id" : 4023,
      "name" : "kt58_Mänttä_Kuoreniemi_R",
      "collectionStatus" : "GATHERING",
      "state" : null,
      "dataUpdatedTime" : "2022-11-02T03:03:40Z"
    }
  }, {
    "type" : "Feature",
    "id" : 4024,
    "geometry" : {
      "type" : "Point",
      "coordinates" : [ 23.475460, 61.577097, 155.000000 ]
    },
    "properties" : {
      "id" : 4024,
      "name" : "vt3_Ylöjärvi_Metsäkylä",
      "collectionStatus" : "GATHERING",
      "state" : null,
      "dataUpdatedTime" : "2022-09-27T07:20:32Z"
    }
  }, {
    "type" : "Feature",
    "id" : 4025,
    "geometry" : {
      "type" : "Point",
      "coordinates" : [ 25.609004, 60.979392, 140.000000 ]
    },
    "properties" : {
      "id" : 4025,
      "name" : "Lahti_Kärpäsenmäki_R",
      "collectionStatus" : "REMOVED_TEMPORARILY",
      "state" : null,
      "dataUpdatedTime" : "2022-09-27T07:20:32Z"
    }
  }, {
    "type" : "Feature",
    "id" : 4027,
    "geometry" : {
      "type" : "Point",
      "coordinates" : [ 23.836093, 61.255318, 0.000000 ]
    },
    "properties" : {
      "id" : 4027,
      "name" : "vt3_Lempäälä_Lippo",
      "collectionStatus" : "GATHERING",
      "state" : "OK",
      "dataUpdatedTime" : "2022-09-27T07:20:32Z"
    }
  }, {
    "type" : "Feature",
    "id" : 4028,
    "geometry" : {
      "type" : "Point",
      "coordinates" : [ 24.057326, 61.140958, 0.000000 ]
    },
    "properties" : {
      "id" : 4028,
      "name" : "vt3_Valkeakoski_Jutikkala",
      "collectionStatus" : "GATHERING",
      "state" : "OK",
      "dataUpdatedTime" : "2022-09-27T07:20:32Z"
    }
  }, {
    "type" : "Feature",
    "id" : 4029,
    "geometry" : {
      "type" : "Point",
      "coordinates" : [ 23.636020, 61.452635, 0.000000 ]
    },
    "properties" : {
      "id" : 4029,
      "name" : "vt3_Pirkkala_Huovi",
      "collectionStatus" : "GATHERING",
      "state" : "OK",
      "dataUpdatedTime" : "2022-09-27T07:20:32Z"
    }
  }, {
    "type" : "Feature",
    "id" : 4030,
    "geometry" : {
      "type" : "Point",
      "coordinates" : [ 24.071716, 61.549790, 0.000000 ]
    },
    "properties" : {
      "id" : 4030,
      "name" : "vt9_Kangasala_Suinula",
      "collectionStatus" : "GATHERING",
      "state" : null,
      "dataUpdatedTime" : "2022-09-27T07:20:32Z"
    }
  }, {
    "type" : "Feature",
    "id" : 4031,
    "geometry" : {
      "type" : "Point",
      "coordinates" : [ 24.475165, 61.708726, 0.000000 ]
    },
    "properties" : {
      "id" : 4031,
      "name" : "vt9_Orivesi_Leppähammas",
      "collectionStatus" : "GATHERING",
      "state" : null,
      "dataUpdatedTime" : "2022-09-27T07:20:32Z"
    }
  }, {
    "type" : "Feature",
    "id" : 4032,
    "geometry" : {
      "type" : "Point",
      "coordinates" : [ 24.708928, 61.731515, 0.000000 ]
    },
    "properties" : {
      "id" : 4032,
      "name" : "vt9_Orivesi_Talviainen",
      "collectionStatus" : "GATHERING",
      "state" : "OK_FAULT_DOUBT_CANCELLED",
      "dataUpdatedTime" : "2022-12-05T06:40:31Z"
    }
  }, {
    "type" : "Feature",
    "id" : 4041,
    "geometry" : {
      "type" : "Point",
      "coordinates" : [ 25.609004, 60.979392, 140.000000 ]
    },
    "properties" : {
      "id" : 4041,
      "name" : "Lahti_Kärpäsenmäki_Opt",
      "collectionStatus" : "REMOVED_TEMPORARILY",
      "state" : null,
      "dataUpdatedTime" : "2022-09-27T07:20:32Z"
    }
  }, {
    "type" : "Feature",
    "id" : 4062,
    "geometry" : {
      "type" : "Point",
      "coordinates" : [ 24.024142, 62.017254, 120.000000 ]
    },
    "properties" : {
      "id" : 4062,
      "name" : "kt66_Ruovesi_Ruojärvi_Opt2",
      "collectionStatus" : "GATHERING",
      "state" : "REPAIR_MAINTENANCE_DONE",
      "dataUpdatedTime" : "2022-09-27T07:20:32Z"
    }
  }, {
    "type" : "Feature",
    "id" : 4064,
    "geometry" : {
      "type" : "Point",
      "coordinates" : [ 23.774446, 61.477226, 0.000000 ]
    },
    "properties" : {
      "id" : 4064,
      "name" : "yt3495_Tampere_Rautaharkko",
      "collectionStatus" : "GATHERING",
      "state" : null,
      "dataUpdatedTime" : "2022-09-27T07:20:32Z"
    }
  }, {
    "type" : "Feature",
    "id" : 4069,
    "geometry" : {
      "type" : "Point",
      "coordinates" : [ 24.698591, 61.059496, 0.000000 ]
    },
    "properties" : {
      "id" : 4069,
      "name" : "vt10_Hämeenlinna_Eteläinen",
      "collectionStatus" : "GATHERING",
      "state" : null,
      "dataUpdatedTime" : "2022-09-27T07:20:32Z"
    }
  }, {
    "type" : "Feature",
    "id" : 4072,
    "geometry" : {
      "type" : "Point",
      "coordinates" : [ 25.649538, 60.956574, 97.000000 ]
    },
    "properties" : {
      "id" : 4072,
      "name" : "vt12_Lahti_Laune",
      "collectionStatus" : "GATHERING",
      "state" : null,
      "dataUpdatedTime" : "2022-09-27T07:20:32Z"
    }
  }, {
    "type" : "Feature",
    "id" : 4076,
    "geometry" : {
      "type" : "Point",
      "coordinates" : [ 24.060703, 61.461774, 0.000000 ]
    },
    "properties" : {
      "id" : 4076,
      "name" : "vt12_Kangasala",
      "collectionStatus" : "GATHERING",
      "state" : null,
      "dataUpdatedTime" : "2022-09-27T07:20:32Z"
    }
  }, {
    "type" : "Feature",
    "id" : 4080,
    "geometry" : {
      "type" : "Point",
      "coordinates" : [ 25.534522, 60.960679, 110.000000 ]
    },
    "properties" : {
      "id" : 4080,
      "name" : "vt12_Hollola_Okeroinen",
      "collectionStatus" : "GATHERING",
      "state" : null,
      "dataUpdatedTime" : "2022-09-27T07:20:32Z"
    }
  }, {
    "type" : "Feature",
    "id" : 4082,
    "geometry" : {
      "type" : "Point",
      "coordinates" : [ 25.609004, 60.979392, 0.000000 ]
    },
    "properties" : {
      "id" : 4082,
      "name" : "Lahti Kärpäsenmäki",
      "collectionStatus" : "GATHERING",
      "state" : null,
      "dataUpdatedTime" : "2022-12-09T08:24:07Z"
    }
  }, {
    "type" : "Feature",
    "id" : 4083,
    "geometry" : {
      "type" : "Point",
      "coordinates" : [ 25.952334, 60.936121, 0.000000 ]
    },
    "properties" : {
      "id" : 4083,
      "name" : "Lahti Elementintie",
      "collectionStatus" : "GATHERING",
      "state" : "OK_FAULT_DOUBT_CANCELLED",
      "dataUpdatedTime" : "2022-12-14T05:16:12Z"
    }
  }, {
    "type" : "Feature",
    "id" : 5001,
    "geometry" : {
      "type" : "Point",
      "coordinates" : [ 26.484738, 60.776254, 0.000000 ]
    },
    "properties" : {
      "id" : 5001,
      "name" : "vt6_Kouvola_Elimäki",
      "collectionStatus" : "GATHERING",
      "state" : "OK",
      "dataUpdatedTime" : "2022-11-15T08:05:28Z"
    }
  }, {
    "type" : "Feature",
    "id" : 5004,
    "geometry" : {
      "type" : "Point",
      "coordinates" : [ 28.856199, 61.229996, 0.000000 ]
    },
    "properties" : {
      "id" : 5004,
      "name" : "vt6_Imatra_Rönkkä",
      "collectionStatus" : "GATHERING",
      "state" : null,
      "dataUpdatedTime" : "2022-09-27T07:20:32Z"
    }
  }, {
    "type" : "Feature",
    "id" : 5005,
    "geometry" : {
      "type" : "Point",
      "coordinates" : [ 29.580662, 61.645189, 0.000000 ]
    },
    "properties" : {
      "id" : 5005,
      "name" : "vt6_Parikkala_Rautalahti",
      "collectionStatus" : "GATHERING",
      "state" : null,
      "dataUpdatedTime" : "2022-09-27T07:20:32Z"
    }
  }, {
    "type" : "Feature",
    "id" : 5006,
    "geometry" : {
      "type" : "Point",
      "coordinates" : [ 27.377918, 61.349430, 0.000000 ]
    },
    "properties" : {
      "id" : 5006,
      "name" : "vt13_Mikkeli_Kauriansalmi",
      "collectionStatus" : "GATHERING",
      "state" : "OK",
      "dataUpdatedTime" : "2022-11-24T06:09:26Z"
    }
  }, {
    "type" : "Feature",
    "id" : 5007,
    "geometry" : {
      "type" : "Point",
      "coordinates" : [ 27.664768, 60.934604, 0.000000 ]
    },
    "properties" : {
      "id" : 5007,
      "name" : "vt6_Luumäki_kko",
      "collectionStatus" : "GATHERING",
      "state" : null,
      "dataUpdatedTime" : "2022-12-01T03:03:42Z"
    }
  }, {
    "type" : "Feature",
    "id" : 5008,
    "geometry" : {
      "type" : "Point",
      "coordinates" : [ 28.310615, 61.071963, 0.000000 ]
    },
    "properties" : {
      "id" : 5008,
      "name" : "vt6_Lappeenranta_Mälkiä",
      "collectionStatus" : "GATHERING",
      "state" : null,
      "dataUpdatedTime" : "2022-09-27T07:20:32Z"
    }
  }, {
    "type" : "Feature",
    "id" : 5009,
    "geometry" : {
      "type" : "Point",
      "coordinates" : [ 26.179069, 60.913218, 0.000000 ]
    },
    "properties" : {
      "id" : 5009,
      "name" : "vt12_Iitti_Mankala",
      "collectionStatus" : "GATHERING",
      "state" : null,
      "dataUpdatedTime" : "2022-09-27T07:20:32Z"
    }
  }, {
    "type" : "Feature",
    "id" : 5011,
    "geometry" : {
      "type" : "Point",
      "coordinates" : [ 27.726795, 60.587054, 0.000000 ]
    },
    "properties" : {
      "id" : 5011,
      "name" : "st170_Virolahti_Virojoki_R",
      "collectionStatus" : "GATHERING",
      "state" : "OK",
      "dataUpdatedTime" : "2022-09-27T07:20:32Z"
    }
  }, {
    "type" : "Feature",
    "id" : 5012,
    "geometry" : {
      "type" : "Point",
      "coordinates" : [ 26.921476, 60.624956, 0.000000 ]
    },
    "properties" : {
      "id" : 5012,
      "name" : "vt15_Kotka_Juurikorpi",
      "collectionStatus" : "GATHERING",
      "state" : null,
      "dataUpdatedTime" : "2022-09-27T07:20:32Z"
    }
  }, {
    "type" : "Feature",
    "id" : 5013,
    "geometry" : {
      "type" : "Point",
      "coordinates" : [ 27.350013, 60.777388, 0.000000 ]
    },
    "properties" : {
      "id" : 5013,
      "name" : "vt26_Hamina_Pyhältö",
      "collectionStatus" : "GATHERING",
      "state" : null,
      "dataUpdatedTime" : "2022-09-28T08:53:34Z"
    }
  }, {
    "type" : "Feature",
    "id" : 5014,
    "geometry" : {
      "type" : "Point",
      "coordinates" : [ 27.979930, 60.765037, 0.000000 ]
    },
    "properties" : {
      "id" : 5014,
      "name" : "st387_Lappeenranta_Ylämaa",
      "collectionStatus" : "GATHERING",
      "state" : "REPAIR_INTERRUPTED",
      "dataUpdatedTime" : "2022-10-20T13:49:39Z"
    }
  }, {
    "type" : "Feature",
    "id" : 5015,
    "geometry" : {
      "type" : "Point",
      "coordinates" : [ 27.745739, 61.168881, 0.000000 ]
    },
    "properties" : {
      "id" : 5015,
      "name" : "vt13_Savitaipale_Ellosenpää",
      "collectionStatus" : "GATHERING",
      "state" : null,
      "dataUpdatedTime" : "2022-11-25T03:03:40Z"
    }
  }, {
    "type" : "Feature",
    "id" : 5016,
    "geometry" : {
      "type" : "Point",
      "coordinates" : [ 26.819304, 60.886259, 0.000000 ]
    },
    "properties" : {
      "id" : 5016,
      "name" : "vt6_Kouvola_Utti_YPS",
      "collectionStatus" : "GATHERING",
      "state" : "OK",
      "dataUpdatedTime" : "2022-09-27T07:20:32Z"
    }
  }, {
    "type" : "Feature",
    "id" : 5019,
    "geometry" : {
      "type" : "Point",
      "coordinates" : [ 26.819304, 60.886259, 0.000000 ]
    },
    "properties" : {
      "id" : 5019,
      "name" : "vt6_Kouvola_Utti_YPS_Opt2",
      "collectionStatus" : "GATHERING",
      "state" : null,
      "dataUpdatedTime" : "2022-09-27T07:20:32Z"
    }
  }, {
    "type" : "Feature",
    "id" : 5027,
    "geometry" : {
      "type" : "Point",
      "coordinates" : [ 27.842359, 60.594107, 25.000000 ]
    },
    "properties" : {
      "id" : 5027,
      "name" : "vt7_Vaalimaa_rekkaparkki",
      "collectionStatus" : "GATHERING",
      "state" : null,
      "dataUpdatedTime" : "2022-09-27T07:20:32Z"
    }
  }, {
    "type" : "Feature",
    "id" : 6001,
    "geometry" : {
      "type" : "Point",
      "coordinates" : [ 25.905355, 61.098739, 0.000000 ]
    },
    "properties" : {
      "id" : 6001,
      "name" : "vt4_Heinola_Vierumäki",
      "collectionStatus" : "GATHERING",
      "state" : null,
      "dataUpdatedTime" : "2022-11-04T03:04:16Z"
    }
  }, {
    "type" : "Feature",
    "id" : 6002,
    "geometry" : {
      "type" : "Point",
      "coordinates" : [ 26.751013, 61.479900, 0.000000 ]
    },
    "properties" : {
      "id" : 6002,
      "name" : "vt5_Mäntyharju_Toivola",
      "collectionStatus" : "GATHERING",
      "state" : null,
      "dataUpdatedTime" : "2022-09-27T07:20:32Z"
    }
  }, {
    "type" : "Feature",
    "id" : 6003,
    "geometry" : {
      "type" : "Point",
      "coordinates" : [ 27.598307, 61.795714, 0.000000 ]
    },
    "properties" : {
      "id" : 6003,
      "name" : "vt5_Juva_Nuutilanmäki",
      "collectionStatus" : "GATHERING",
      "state" : null,
      "dataUpdatedTime" : "2022-09-27T07:20:32Z"
    }
  }, {
    "type" : "Feature",
    "id" : 6004,
    "geometry" : {
      "type" : "Point",
      "coordinates" : [ 26.040098, 61.412619, 0.000000 ]
    },
    "properties" : {
      "id" : 6004,
      "name" : "vt4_Sysmä_Onkiniemi",
      "collectionStatus" : "GATHERING",
      "state" : null,
      "dataUpdatedTime" : "2022-09-27T07:20:32Z"
    }
  }, {
    "type" : "Feature",
    "id" : 6005,
    "geometry" : {
      "type" : "Point",
      "coordinates" : [ 27.806766, 62.057329, 0.000000 ]
    },
    "properties" : {
      "id" : 6005,
      "name" : "vt5_Joroinen_Puunkolo",
      "collectionStatus" : "GATHERING",
      "state" : null,
      "dataUpdatedTime" : "2022-10-21T03:03:28Z"
    }
  }, {
    "type" : "Feature",
    "id" : 6006,
    "geometry" : {
      "type" : "Point",
      "coordinates" : [ 28.527503, 61.939801, 0.000000 ]
    },
    "properties" : {
      "id" : 6006,
      "name" : "vt14_Rantasalmi_Parkumäki",
      "collectionStatus" : "GATHERING",
      "state" : null,
      "dataUpdatedTime" : "2022-09-28T08:54:35Z"
    }
  }, {
    "type" : "Feature",
    "id" : 6007,
    "geometry" : {
      "type" : "Point",
      "coordinates" : [ 27.172530, 61.287434, 0.000000 ]
    },
    "properties" : {
      "id" : 6007,
      "name" : "vt15_Mäntyharju_Tommola",
      "collectionStatus" : "GATHERING",
      "state" : null,
      "dataUpdatedTime" : "2022-10-12T19:44:18Z"
    }
  }, {
    "type" : "Feature",
    "id" : 6008,
    "geometry" : {
      "type" : "Point",
      "coordinates" : [ 28.922122, 62.533823, 0.000000 ]
    },
    "properties" : {
      "id" : 6008,
      "name" : "vt23_Heinävesi_Suurmäki",
      "collectionStatus" : "GATHERING",
      "state" : null,
      "dataUpdatedTime" : "2022-10-05T15:57:41Z"
    }
  }, {
    "type" : "Feature",
    "id" : 6009,
    "geometry" : {
      "type" : "Point",
      "coordinates" : [ 27.402798, 62.290780, 0.000000 ]
    },
    "properties" : {
      "id" : 6009,
      "name" : "vt23_Pieksämäki_Siikamäki_R",
      "collectionStatus" : "GATHERING",
      "state" : "REPAIR_MAINTENANCE_DONE",
      "dataUpdatedTime" : "2022-09-27T07:20:32Z"
    }
  }, {
    "type" : "Feature",
    "id" : 6010,
    "geometry" : {
      "type" : "Point",
      "coordinates" : [ 26.929848, 61.903356, 0.000000 ]
    },
    "properties" : {
      "id" : 6010,
      "name" : "vt13_Mikkeli_Läsänkoski",
      "collectionStatus" : "GATHERING",
      "state" : null,
      "dataUpdatedTime" : "2022-09-28T08:54:34Z"
    }
  }, {
    "type" : "Feature",
    "id" : 6011,
    "geometry" : {
      "type" : "Point",
      "coordinates" : [ 28.318466, 61.799361, 90.000000 ]
    },
    "properties" : {
      "id" : 6011,
      "name" : "st435_Sulkava_Pieksuu_K",
      "collectionStatus" : "GATHERING",
      "state" : null,
      "dataUpdatedTime" : "2022-09-27T07:20:32Z"
    }
  }, {
    "type" : "Feature",
    "id" : 6016,
    "geometry" : {
      "type" : "Point",
      "coordinates" : [ 28.464150, 62.524064, 100.000000 ]
    },
    "properties" : {
      "id" : 6016,
      "name" : "vt23_Heinävesi_Lamminpää",
      "collectionStatus" : "GATHERING",
      "state" : null,
      "dataUpdatedTime" : "2022-11-04T03:04:20Z"
    }
  }, {
    "type" : "Feature",
    "id" : 6021,
    "geometry" : {
      "type" : "Point",
      "coordinates" : [ 26.318696, 62.159236, 162.000000 ]
    },
    "properties" : {
      "id" : 6021,
      "name" : "vt13_Kangasniemi_Häppälä_Opt",
      "collectionStatus" : "GATHERING",
      "state" : null,
      "dataUpdatedTime" : "2022-09-27T07:20:32Z"
    }
  }, {
    "type" : "Feature",
    "id" : 6023,
    "geometry" : {
      "type" : "Point",
      "coordinates" : [ 28.854191, 61.879312, 0.000000 ]
    },
    "properties" : {
      "id" : 6023,
      "name" : "vt14_Savonlinna_Hevonpäänniemi",
      "collectionStatus" : "GATHERING",
      "state" : null,
      "dataUpdatedTime" : "2022-09-28T08:54:36Z"
    }
  }, {
    "type" : "Feature",
    "id" : 6028,
    "geometry" : {
      "type" : "Point",
      "coordinates" : [ 28.838159, 61.878423, 0.000000 ]
    },
    "properties" : {
      "id" : 6028,
      "name" : "vt14_Savonlinna_Laitaatsalmi_silta_Opt1",
      "collectionStatus" : "GATHERING",
      "state" : null,
      "dataUpdatedTime" : "2022-09-27T07:20:32Z"
    }
  }, {
    "type" : "Feature",
    "id" : 7001,
    "geometry" : {
      "type" : "Point",
      "coordinates" : [ 29.786480, 62.661611, 93.000000 ]
    },
    "properties" : {
      "id" : 7001,
      "name" : "vt6_Kontiolahti_Lehmo",
      "collectionStatus" : "GATHERING",
      "state" : null,
      "dataUpdatedTime" : "2022-09-27T07:20:32Z"
    }
  }, {
    "type" : "Feature",
    "id" : 7002,
    "geometry" : {
      "type" : "Point",
      "coordinates" : [ 29.731179, 61.797315, 100.000000 ]
    },
    "properties" : {
      "id" : 7002,
      "name" : "vt6_Kitee_Kesälahti",
      "collectionStatus" : "GATHERING",
      "state" : null,
      "dataUpdatedTime" : "2022-10-01T03:03:27Z"
    }
  }, {
    "type" : "Feature",
    "id" : 7003,
    "geometry" : {
      "type" : "Point",
      "coordinates" : [ 29.104238, 62.684135, 0.000000 ]
    },
    "properties" : {
      "id" : 7003,
      "name" : "vt9_Liperi_Ahonkylä",
      "collectionStatus" : "GATHERING",
      "state" : null,
      "dataUpdatedTime" : "2022-10-05T15:56:41Z"
    }
  }, {
    "type" : "Feature",
    "id" : 7004,
    "geometry" : {
      "type" : "Point",
      "coordinates" : [ 30.134792, 63.225774, 165.000000 ]
    },
    "properties" : {
      "id" : 7004,
      "name" : "kt73_Lieksa_Mökkivaara_R",
      "collectionStatus" : "GATHERING",
      "state" : null,
      "dataUpdatedTime" : "2022-09-27T07:20:32Z"
    }
  }, {
    "type" : "Feature",
    "id" : 7005,
    "geometry" : {
      "type" : "Point",
      "coordinates" : [ 30.107904, 62.239962, 111.000000 ]
    },
    "properties" : {
      "id" : 7005,
      "name" : "vt6_Tohmajärvi_Vinska",
      "collectionStatus" : "GATHERING",
      "state" : null,
      "dataUpdatedTime" : "2022-09-27T07:20:32Z"
    }
  }, {
    "type" : "Feature",
    "id" : 7006,
    "geometry" : {
      "type" : "Point",
      "coordinates" : [ 29.302064, 63.216633, 108.000000 ]
    },
    "properties" : {
      "id" : 7006,
      "name" : "vt6_Juuka_Räksiinalava",
      "collectionStatus" : "GATHERING",
      "state" : null,
      "dataUpdatedTime" : "2022-10-20T03:03:03Z"
    }
  }, {
    "type" : "Feature",
    "id" : 7007,
    "geometry" : {
      "type" : "Point",
      "coordinates" : [ 28.910815, 63.628601, 112.000000 ]
    },
    "properties" : {
      "id" : 7007,
      "name" : "vt6_Valtimo_Myllykylä_R",
      "collectionStatus" : "GATHERING",
      "state" : null,
      "dataUpdatedTime" : "2022-09-27T07:20:32Z"
    }
  }, {
    "type" : "Feature",
    "id" : 7008,
    "geometry" : {
      "type" : "Point",
      "coordinates" : [ 30.691845, 62.585064, 190.000000 ]
    },
    "properties" : {
      "id" : 7008,
      "name" : "kt74_Ilomantsi_Marjovaara_R",
      "collectionStatus" : "GATHERING",
      "state" : null,
      "dataUpdatedTime" : "2022-09-27T07:20:32Z"
    }
  }, {
    "type" : "Feature",
    "id" : 7009,
    "geometry" : {
      "type" : "Point",
      "coordinates" : [ 29.603705, 62.632480, 102.000000 ]
    },
    "properties" : {
      "id" : 7009,
      "name" : "vt9_Liperi_Ylämylly",
      "collectionStatus" : "GATHERING",
      "state" : null,
      "dataUpdatedTime" : "2022-09-27T07:20:32Z"
    }
  }, {
    "type" : "Feature",
    "id" : 7011,
    "geometry" : {
      "type" : "Point",
      "coordinates" : [ 30.525612, 62.178713, 89.000000 ]
    },
    "properties" : {
      "id" : 7011,
      "name" : "vt9_Tohmajärvi_Värtsilä_R",
      "collectionStatus" : "GATHERING",
      "state" : null,
      "dataUpdatedTime" : "2022-09-27T07:20:32Z"
    }
  }, {
    "type" : "Feature",
    "id" : 7012,
    "geometry" : {
      "type" : "Point",
      "coordinates" : [ 29.340875, 62.632521, 90.000000 ]
    },
    "properties" : {
      "id" : 7012,
      "name" : "vt9_Liperi_Käsämä",
      "collectionStatus" : "GATHERING",
      "state" : "OK",
      "dataUpdatedTime" : "2022-09-27T07:20:32Z"
    }
  }, {
    "type" : "Feature",
    "id" : 7014,
    "geometry" : {
      "type" : "Point",
      "coordinates" : [ 30.090165, 62.400806, 80.000000 ]
    },
    "properties" : {
      "id" : 7014,
      "name" : "vt6_Joensuu_Tikkala",
      "collectionStatus" : "GATHERING",
      "state" : null,
      "dataUpdatedTime" : "2022-09-27T07:20:32Z"
    }
  }, {
    "type" : "Feature",
    "id" : 7015,
    "geometry" : {
      "type" : "Point",
      "coordinates" : [ 30.100103, 62.797111, 97.000000 ]
    },
    "properties" : {
      "id" : 7015,
      "name" : "kt73_Eno_Louhioja_R",
      "collectionStatus" : "GATHERING",
      "state" : null,
      "dataUpdatedTime" : "2022-09-27T07:20:32Z"
    }
  }, {
    "type" : "Feature",
    "id" : 7016,
    "geometry" : {
      "type" : "Point",
      "coordinates" : [ 31.277053, 62.929197, 206.000000 ]
    },
    "properties" : {
      "id" : 7016,
      "name" : "st522_Ilomantsi_Hattuvaara_K",
      "collectionStatus" : "GATHERING",
      "state" : null,
      "dataUpdatedTime" : "2022-09-27T07:20:32Z"
    }
  }, {
    "type" : "Feature",
    "id" : 7017,
    "geometry" : {
      "type" : "Point",
      "coordinates" : [ 29.607324, 62.053425, 96.000000 ]
    },
    "properties" : {
      "id" : 7017,
      "name" : "kt71_Kitee_Väärämäki_K",
      "collectionStatus" : "GATHERING",
      "state" : null,
      "dataUpdatedTime" : "2022-09-27T07:20:32Z"
    }
  }, {
    "type" : "Feature",
    "id" : 7018,
    "geometry" : {
      "type" : "Point",
      "coordinates" : [ 29.780862, 62.614218, 81.000000 ]
    },
    "properties" : {
      "id" : 7018,
      "name" : "vt6_Joensuu",
      "collectionStatus" : "GATHERING",
      "state" : null,
      "dataUpdatedTime" : "2022-09-27T07:20:32Z"
    }
  }, {
    "type" : "Feature",
    "id" : 7019,
    "geometry" : {
      "type" : "Point",
      "coordinates" : [ 29.457395, 63.824080, 249.000000 ]
    },
    "properties" : {
      "id" : 7019,
      "name" : "kt75_Nurmes_Mujejärvi_R",
      "collectionStatus" : "GATHERING",
      "state" : "REPAIR_MAINTENANCE_DONE",
      "dataUpdatedTime" : "2022-09-27T07:20:32Z"
    }
  }, {
    "type" : "Feature",
    "id" : 7024,
    "geometry" : {
      "type" : "Point",
      "coordinates" : [ 29.995605, 63.523624, 129.000000 ]
    },
    "properties" : {
      "id" : 7024,
      "name" : "st524_Lieksa_Nurmijärvi_K",
      "collectionStatus" : "GATHERING",
      "state" : "OK_FAULT_DOUBT_CANCELLED",
      "dataUpdatedTime" : "2022-09-27T07:20:32Z"
    }
  }, {
    "type" : "Feature",
    "id" : 7025,
    "geometry" : {
      "type" : "Point",
      "coordinates" : [ 30.532340, 63.283638, 172.000000 ]
    },
    "properties" : {
      "id" : 7025,
      "name" : "st522_Lieksa_Hatunkylä_K",
      "collectionStatus" : "GATHERING",
      "state" : null,
      "dataUpdatedTime" : "2022-09-27T07:20:32Z"
    }
  }, {
    "type" : "Feature",
    "id" : 7026,
    "geometry" : {
      "type" : "Point",
      "coordinates" : [ 30.850259, 62.345539, 129.000000 ]
    },
    "properties" : {
      "id" : 7026,
      "name" : "st500_Joensuu_Hoilola_K",
      "collectionStatus" : "GATHERING",
      "state" : null,
      "dataUpdatedTime" : "2022-09-27T07:20:32Z"
    }
  }, {
    "type" : "Feature",
    "id" : 7028,
    "geometry" : {
      "type" : "Point",
      "coordinates" : [ 30.100103, 62.797111, 97.000000 ]
    },
    "properties" : {
      "id" : 7028,
      "name" : "kt73_Eno_Louhioja_Opt",
      "collectionStatus" : "GATHERING",
      "state" : null,
      "dataUpdatedTime" : "2022-09-27T07:20:32Z"
    }
  }, {
    "type" : "Feature",
    "id" : 7032,
    "geometry" : {
      "type" : "Point",
      "coordinates" : [ 29.623520, 63.475826, 100.000000 ]
    },
    "properties" : {
      "id" : 7032,
      "name" : "kt73_Lieksa_Vieki_K",
      "collectionStatus" : "GATHERING",
      "state" : null,
      "dataUpdatedTime" : "2022-09-27T07:20:32Z"
    }
  }, {
    "type" : "Feature",
    "id" : 7034,
    "geometry" : {
      "type" : "Point",
      "coordinates" : [ 30.359867, 63.090225, 226.000000 ]
    },
    "properties" : {
      "id" : 7034,
      "name" : "yt5200_Lieksa_Jaakonvaara_K",
      "collectionStatus" : "GATHERING",
      "state" : "OK_FAULT_DOUBT_CANCELLED",
      "dataUpdatedTime" : "2022-09-27T07:20:32Z"
    }
  }, {
    "type" : "Feature",
    "id" : 7036,
    "geometry" : {
      "type" : "Point",
      "coordinates" : [ 29.804021, 62.957283, 143.000000 ]
    },
    "properties" : {
      "id" : 7036,
      "name" : "vt6_Kontiolahti_Romppala_Opt1",
      "collectionStatus" : "GATHERING",
      "state" : "REPAIR_INTERRUPTED",
      "dataUpdatedTime" : "2022-10-21T07:02:16Z"
    }
  }, {
    "type" : "Feature",
    "id" : 7037,
    "geometry" : {
      "type" : "Point",
      "coordinates" : [ 29.873687, 61.974388, 89.000000 ]
    },
    "properties" : {
      "id" : 7037,
      "name" : "vt6_Kitee_Kousa",
      "collectionStatus" : "GATHERING",
      "state" : null,
      "dataUpdatedTime" : "2022-09-27T07:20:32Z"
    }
  }, {
    "type" : "Feature",
    "id" : 7039,
    "geometry" : {
      "type" : "Point",
      "coordinates" : [ 29.862258, 62.530883, 80.000000 ]
    },
    "properties" : {
      "id" : 7039,
      "name" : "vt6_Joensuu_Reijola",
      "collectionStatus" : "GATHERING",
      "state" : null,
      "dataUpdatedTime" : "2022-09-27T07:20:32Z"
    }
  }, {
    "type" : "Feature",
    "id" : 8001,
    "geometry" : {
      "type" : "Point",
      "coordinates" : [ 27.607599, 62.841376, 110.000000 ]
    },
    "properties" : {
      "id" : 8001,
      "name" : "vt5_Kuopio_Kuvelampi",
      "collectionStatus" : "GATHERING",
      "state" : null,
      "dataUpdatedTime" : "2022-10-01T03:03:24Z"
    }
  }, {
    "type" : "Feature",
    "id" : 8002,
    "geometry" : {
      "type" : "Point",
      "coordinates" : [ 27.809276, 62.383576, 97.000000 ]
    },
    "properties" : {
      "id" : 8002,
      "name" : "vt5_Leppävirta_Poijinpelto",
      "collectionStatus" : "GATHERING",
      "state" : null,
      "dataUpdatedTime" : "2022-10-21T03:03:30Z"
    }
  }, {
    "type" : "Feature",
    "id" : 8003,
    "geometry" : {
      "type" : "Point",
      "coordinates" : [ 27.450941, 63.303119, 90.000000 ]
    },
    "properties" : {
      "id" : 8003,
      "name" : "vt5_Lapinlahti_Mäntylahti",
      "collectionStatus" : "GATHERING",
      "state" : "FAULT_CONFIRMED_NOT_FIXED_IN_NEAR_FUTURE",
      "dataUpdatedTime" : "2022-12-09T05:16:38Z"
    }
  }, {
    "type" : "Feature",
    "id" : 8004,
    "geometry" : {
      "type" : "Point",
      "coordinates" : [ 27.285323, 63.666126, 187.000000 ]
    },
    "properties" : {
      "id" : 8004,
      "name" : "vt5_Iisalmi_Ryhälänmäki",
      "collectionStatus" : "GATHERING",
      "state" : null,
      "dataUpdatedTime" : "2022-09-27T07:20:32Z"
    }
  }, {
    "type" : "Feature",
    "id" : 8005,
    "geometry" : {
      "type" : "Point",
      "coordinates" : [ 27.671272, 63.060328, 110.000000 ]
    },
    "properties" : {
      "id" : 8005,
      "name" : "vt5_Siilinjärvi_Oikeakätinen",
      "collectionStatus" : "GATHERING",
      "state" : null,
      "dataUpdatedTime" : "2022-09-27T07:20:32Z"
    }
  }, {
    "type" : "Feature",
    "id" : 8006,
    "geometry" : {
      "type" : "Point",
      "coordinates" : [ 28.336779, 62.870698, 105.000000 ]
    },
    "properties" : {
      "id" : 8006,
      "name" : "vt9_Tuusniemi_Tuusjärvi_R",
      "collectionStatus" : "GATHERING",
      "state" : null,
      "dataUpdatedTime" : "2022-09-27T07:20:32Z"
    }
  }, {
    "type" : "Feature",
    "id" : 8007,
    "geometry" : {
      "type" : "Point",
      "coordinates" : [ 26.949473, 63.232122, 158.000000 ]
    },
    "properties" : {
      "id" : 8007,
      "name" : "kt77_Pielavesi_Löytynjärvi_R",
      "collectionStatus" : "GATHERING",
      "state" : null,
      "dataUpdatedTime" : "2022-09-27T07:20:32Z"
    }
  }, {
    "type" : "Feature",
    "id" : 8008,
    "geometry" : {
      "type" : "Point",
      "coordinates" : [ 28.056424, 63.157658, 160.000000 ]
    },
    "properties" : {
      "id" : 8008,
      "name" : "kt75_Nilsiä_Suholanmäki",
      "collectionStatus" : "GATHERING",
      "state" : null,
      "dataUpdatedTime" : "2022-09-27T07:20:32Z"
    }
  }, {
    "type" : "Feature",
    "id" : 8009,
    "geometry" : {
      "type" : "Point",
      "coordinates" : [ 27.048434, 62.586010, 106.000000 ]
    },
    "properties" : {
      "id" : 8009,
      "name" : "vt9_Suonenjoki_Levä",
      "collectionStatus" : "GATHERING",
      "state" : null,
      "dataUpdatedTime" : "2022-09-27T07:20:32Z"
    }
  }, {
    "type" : "Feature",
    "id" : 8010,
    "geometry" : {
      "type" : "Point",
      "coordinates" : [ 26.843200, 63.614118, 132.000000 ]
    },
    "properties" : {
      "id" : 8010,
      "name" : "vt27_Iisalmi_Runni_R",
      "collectionStatus" : "GATHERING",
      "state" : null,
      "dataUpdatedTime" : "2022-09-27T07:20:32Z"
    }
  }, {
    "type" : "Feature",
    "id" : 8011,
    "geometry" : {
      "type" : "Point",
      "coordinates" : [ 28.042812, 62.931570, 116.000000 ]
    },
    "properties" : {
      "id" : 8011,
      "name" : "vt9_Kuopio_Vartiala",
      "collectionStatus" : "GATHERING",
      "state" : null,
      "dataUpdatedTime" : "2022-09-27T07:20:32Z"
    }
  }, {
    "type" : "Feature",
    "id" : 8012,
    "geometry" : {
      "type" : "Point",
      "coordinates" : [ 27.858781, 62.959315, 88.000000 ]
    },
    "properties" : {
      "id" : 8012,
      "name" : "vt9_Kuopio_Jännevirta",
      "collectionStatus" : "GATHERING",
      "state" : null,
      "dataUpdatedTime" : "2022-09-27T07:20:32Z"
    }
  }, {
    "type" : "Feature",
    "id" : 8014,
    "geometry" : {
      "type" : "Point",
      "coordinates" : [ 27.523779, 62.715944, 132.000000 ]
    },
    "properties" : {
      "id" : 8014,
      "name" : "vt9_Kuopio_Vehmasmäki",
      "collectionStatus" : "GATHERING",
      "state" : null,
      "dataUpdatedTime" : "2022-09-27T07:20:32Z"
    }
  }, {
    "type" : "Feature",
    "id" : 8017,
    "geometry" : {
      "type" : "Point",
      "coordinates" : [ 26.730313, 63.910761, 189.000000 ]
    },
    "properties" : {
      "id" : 8017,
      "name" : "kt88_Vieremä_Isomäki_K",
      "collectionStatus" : "GATHERING",
      "state" : null,
      "dataUpdatedTime" : "2022-09-27T07:20:32Z"
    }
  }, {
    "type" : "Feature",
    "id" : 8018,
    "geometry" : {
      "type" : "Point",
      "coordinates" : [ 27.800543, 63.606670, 120.000000 ]
    },
    "properties" : {
      "id" : 8018,
      "name" : "kt87_Sonkajärvi_Koirakoski_K",
      "collectionStatus" : "GATHERING",
      "state" : null,
      "dataUpdatedTime" : "2022-09-27T07:20:32Z"
    }
  }, {
    "type" : "Feature",
    "id" : 8019,
    "geometry" : {
      "type" : "Point",
      "coordinates" : [ 26.389087, 62.927206, 112.000000 ]
    },
    "properties" : {
      "id" : 8019,
      "name" : "st551_Vesanto_Löttökorpi_K",
      "collectionStatus" : "GATHERING",
      "state" : "OK_FAULT_DOUBT_CANCELLED",
      "dataUpdatedTime" : "2022-09-27T07:20:32Z"
    }
  }, {
    "type" : "Feature",
    "id" : 8020,
    "geometry" : {
      "type" : "Point",
      "coordinates" : [ 27.636252, 62.885114, 115.000000 ]
    },
    "properties" : {
      "id" : 8020,
      "name" : "vt5_Kuopio_Siikalahti",
      "collectionStatus" : "GATHERING",
      "state" : null,
      "dataUpdatedTime" : "2022-09-27T07:20:32Z"
    }
  }, {
    "type" : "Feature",
    "id" : 8023,
    "geometry" : {
      "type" : "Point",
      "coordinates" : [ 27.604964, 62.589621, 92.000000 ]
    },
    "properties" : {
      "id" : 8023,
      "name" : "vt5_Leppävirta_Oravikoski",
      "collectionStatus" : "GATHERING",
      "state" : null,
      "dataUpdatedTime" : "2022-10-21T03:03:32Z"
    }
  }, {
    "type" : "Feature",
    "id" : 8031,
    "geometry" : {
      "type" : "Point",
      "coordinates" : [ 28.336779, 62.870698, 105.000000 ]
    },
    "properties" : {
      "id" : 8031,
      "name" : "vt9_Tuusniemi_Tuusjärvi_Opt",
      "collectionStatus" : "GATHERING",
      "state" : null,
      "dataUpdatedTime" : "2022-09-27T07:20:32Z"
    }
  }, {
    "type" : "Feature",
    "id" : 8038,
    "geometry" : {
      "type" : "Point",
      "coordinates" : [ 27.677779, 62.918867, 101.000000 ]
    },
    "properties" : {
      "id" : 8038,
      "name" : "vt5_Kuopio_Rahusenlampi_OptX1",
      "collectionStatus" : "GATHERING",
      "state" : null,
      "dataUpdatedTime" : "2022-09-27T07:20:32Z"
    }
  }, {
    "type" : "Feature",
    "id" : 8042,
    "geometry" : {
      "type" : "Point",
      "coordinates" : [ 27.696966, 62.964039, 85.000000 ]
    },
    "properties" : {
      "id" : 8042,
      "name" : "vt5_Kuopio_Sorsasalo_OptX1",
      "collectionStatus" : "GATHERING",
      "state" : null,
      "dataUpdatedTime" : "2022-09-27T07:20:32Z"
    }
  }, {
    "type" : "Feature",
    "id" : 8064,
    "geometry" : {
      "type" : "Point",
      "coordinates" : [ 28.165408, 62.407354, 103.000000 ]
    },
    "properties" : {
      "id" : 8064,
      "name" : "vt23_Leppävirta_Soisalo",
      "collectionStatus" : "GATHERING",
      "state" : "REPAIR_INTERRUPTED",
      "dataUpdatedTime" : "2022-09-27T07:20:32Z"
    }
  }, {
    "type" : "Feature",
    "id" : 8066,
    "geometry" : {
      "type" : "Point",
      "coordinates" : [ 27.671233, 62.946849, 98.000000 ]
    },
    "properties" : {
      "id" : 8066,
      "name" : "vt5_Kuopio_Tikkalansaari",
      "collectionStatus" : "GATHERING",
      "state" : null,
      "dataUpdatedTime" : "2022-09-27T07:20:32Z"
    }
  }, {
    "type" : "Feature",
    "id" : 8069,
    "geometry" : {
      "type" : "Point",
      "coordinates" : [ 27.671918, 62.947519, 99.000000 ]
    },
    "properties" : {
      "id" : 8069,
      "name" : "vt5_Kuopio_Tikkalansaari_Silta_Opt1",
      "collectionStatus" : "GATHERING",
      "state" : null,
      "dataUpdatedTime" : "2022-09-27T07:20:32Z"
    }
  }, {
    "type" : "Feature",
    "id" : 8071,
    "geometry" : {
      "type" : "Point",
      "coordinates" : [ 27.677779, 62.918867, 101.000000 ]
    },
    "properties" : {
      "id" : 8071,
      "name" : "vt5_Kuopio_Rahusenlampi_OptX2",
      "collectionStatus" : "GATHERING",
      "state" : null,
      "dataUpdatedTime" : "2022-09-27T07:20:32Z"
    }
  }, {
    "type" : "Feature",
    "id" : 8073,
    "geometry" : {
      "type" : "Point",
      "coordinates" : [ 27.696966, 62.964039, 85.000000 ]
    },
    "properties" : {
      "id" : 8073,
      "name" : "vt5_Kuopio_Sorsasalo_OptX2",
      "collectionStatus" : "GATHERING",
      "state" : null,
      "dataUpdatedTime" : "2022-09-27T07:20:32Z"
    }
  }, {
    "type" : "Feature",
    "id" : 8079,
    "geometry" : {
      "type" : "Point",
      "coordinates" : [ 27.830014, 62.971111, 113.000000 ]
    },
    "properties" : {
      "id" : 8079,
      "name" : "vt9_Kuopio_Jännevirta_Silta_Opt1",
      "collectionStatus" : "GATHERING",
      "state" : null,
      "dataUpdatedTime" : "2022-09-27T07:20:32Z"
    }
  }, {
    "type" : "Feature",
    "id" : 8084,
    "geometry" : {
      "type" : "Point",
      "coordinates" : [ 27.577415, 62.719010, 120.000000 ]
    },
    "properties" : {
      "id" : 8084,
      "name" : "vt5_Kuopio_Vehmasmäki",
      "collectionStatus" : "GATHERING",
      "state" : null,
      "dataUpdatedTime" : "2022-11-16T03:03:37Z"
    }
  }, {
    "type" : "Feature",
    "id" : 9001,
    "geometry" : {
      "type" : "Point",
      "coordinates" : [ 26.051860, 62.051440, 185.000000 ]
    },
    "properties" : {
      "id" : 9001,
      "name" : "vt4_Toivakka_Vestonmäki",
      "collectionStatus" : "GATHERING",
      "state" : null,
      "dataUpdatedTime" : "2022-09-27T07:20:32Z"
    }
  }, {
    "type" : "Feature",
    "id" : 9002,
    "geometry" : {
      "type" : "Point",
      "coordinates" : [ 25.500411, 61.999365, 125.000000 ]
    },
    "properties" : {
      "id" : 9002,
      "name" : "vt9_Jyväskylä_Korpilahti",
      "collectionStatus" : "GATHERING",
      "state" : null,
      "dataUpdatedTime" : "2022-09-27T07:20:32Z"
    }
  }, {
    "type" : "Feature",
    "id" : 9003,
    "geometry" : {
      "type" : "Point",
      "coordinates" : [ 25.393709, 62.271619, 160.000000 ]
    },
    "properties" : {
      "id" : 9003,
      "name" : "vt18_Petäjävesi_Vehkasuo_R",
      "collectionStatus" : "GATHERING",
      "state" : null,
      "dataUpdatedTime" : "2022-09-27T07:20:32Z"
    }
  }, {
    "type" : "Feature",
    "id" : 9004,
    "geometry" : {
      "type" : "Point",
      "coordinates" : [ 25.810019, 62.877732, 105.000000 ]
    },
    "properties" : {
      "id" : 9004,
      "name" : "vt4_Äänekoski_Kalaniemi",
      "collectionStatus" : "GATHERING",
      "state" : null,
      "dataUpdatedTime" : "2022-11-02T03:03:43Z"
    }
  }, {
    "type" : "Feature",
    "id" : 9005,
    "geometry" : {
      "type" : "Point",
      "coordinates" : [ 25.295385, 61.631933, 125.000000 ]
    },
    "properties" : {
      "id" : 9005,
      "name" : "vt24_Kuhmoinen_Iso-Sääksjärvi_R",
      "collectionStatus" : "GATHERING",
      "state" : null,
      "dataUpdatedTime" : "2022-09-27T07:20:32Z"
    }
  }, {
    "type" : "Feature",
    "id" : 9006,
    "geometry" : {
      "type" : "Point",
      "coordinates" : [ 25.684373, 62.440320, 135.000000 ]
    },